[
  {
    "int64_field_0": "223",
    "business_id": "cmcUx0yiIiuVRUhjb0kGXw",
    "name": "Eons Fashion Antique",
    "address": "5850 Ellsworth Ave",
    "city": "Pittsburgh",
    "state": "PA",
    "postal_code": "15232",
    "latitude": "40.4568715",
    "longitude": "-79.9294162",
    "stars": "4.5",
    "review_count": "26",
    "is_open": "1",
    "attributes": "{'RestaurantsPriceRange2': '2', 'ByAppointmentOnly': 'False', 'BusinessParking': \"{'garage': False, 'street': True, 'validated': False, 'lot': False, 'valet': False}\", 'BikeParking': 'True', 'BusinessAcceptsCreditCards': 'True'}",
    "categories": "Arts & Crafts, Costumes, Fashion, Formal Wear, Used, Vintage & Consignment, Antiques, Shopping",
    "hours": "{'Monday': '12:0-17:0', 'Tuesday': '12:0-17:0', 'Wednesday': '12:0-17:0', 'Thursday': '12:0-17:0', 'Friday': '12:0-17:0', 'Saturday': '11:0-17:0', 'Sunday': '12:0-17:0'}"
  },
  {
    "int64_field_0": "558",
    "business_id": "8RC8xUo07sTIXI3FaqzYEA",
    "name": "Highway Robbery Vintage",
    "address": "2012 E Carson St",
    "city": "Pittsburgh",
    "state": "PA",
    "postal_code": "15203",
    "latitude": "40.428457",
    "longitude": "-79.976981",
    "stars": "4.5",
    "review_count": "19",
    "is_open": "1",
    "attributes": "{'BusinessParking': \"{'garage': False, 'street': True, 'validated': False, 'lot': False, 'valet': False}\", 'BikeParking': 'True', 'BusinessAcceptsCreditCards': 'True', 'RestaurantsPriceRange2': '2'}",
    "categories": "Shopping, Used, Vintage & Consignment, Fashion, Men's Clothing, Women's Clothing",
    "hours": "{'Monday': '12:0-20:0', 'Tuesday': '12:0-20:0', 'Wednesday': '12:0-20:0', 'Thursday': '12:0-20:0', 'Friday': '12:0-20:0', 'Saturday': '12:0-20:0', 'Sunday': '12:0-17:0'}"
  },
  {
    "int64_field_0": "2815",
    "business_id": "L0DJ7-GUDMLIlIR-7vykvQ",
    "name": "Merante's Gifts",
    "address": "4723 Liberty Ave",
    "city": "Pittsburgh",
    "state": "PA",
    "postal_code": "15224",
    "latitude": "40.4619011",
    "longitude": "-79.9490237",
    "stars": "4.5",
    "review_count": "15",
    "is_open": "1",
    "attributes": "{'GoodForKids': 'False', 'WiFi': \"u'no'\", 'Caters': 'True', 'RestaurantsGoodForGroups': 'True', 'NoiseLevel': \"u'average'\", 'RestaurantsPriceRange2': '2', 'HasTV': 'False', 'RestaurantsDelivery': 'False', 'BikeParking': 'True', 'Alcohol': \"u'none'\", 'RestaurantsTakeOut': 'True', 'BusinessAcceptsCreditCards': 'True', 'RestaurantsAttire': \"'casual'\", 'BusinessParking': \"{'garage': False, 'street': False, 'validated': False, 'lot': False, 'valet': False}\", 'GoodForMeal': \"{'dessert': False, 'latenight': False, 'lunch': False, 'dinner': False, 'brunch': False, 'breakfast': False}\", 'Ambience': \"{'touristy': False, 'hipster': False, 'romantic': False, 'divey': False, 'intimate': False, 'trendy': False, 'upscale': False, 'classy': False, 'casual': False}\", 'RestaurantsReservations': 'True'}",
    "categories": "Flowers & Gifts, Gift Shops, Shopping, Italian, Cooking Classes, Restaurants, Arts & Crafts",
    "hours": "{'Tuesday': '10:0-16:0', 'Wednesday': '10:0-16:0', 'Thursday': '10:0-16:0', 'Friday': '10:0-16:0', 'Saturday': '10:0-16:0'}"
  },
  {
    "int64_field_0": "4456",
    "business_id": "6SgAFVbpOR7mD-qsuqbGmw",
    "name": "Cruel Noise Records",
    "address": "3138 Dobson St, Fl 2",
    "city": "Pittsburgh",
    "state": "PA",
    "postal_code": "15219",
    "latitude": "40.4574417",
    "longitude": "-79.9658899",
    "stars": "4.5",
    "review_count": "16",
    "is_open": "1",
    "attributes": "{'BusinessParking': \"{'garage': False, 'street': True, 'validated': False, 'lot': False, 'valet': False}\", 'BusinessAcceptsCreditCards': 'True', 'BikeParking': 'True', 'RestaurantsPriceRange2': '2'}",
    "categories": "Shopping, Books, Mags, Music & Video, Vinyl Records",
    "hours": "{'Monday': '0:0-0:0', 'Tuesday': '12:0-20:0', 'Wednesday': '12:0-20:0', 'Thursday': '12:0-20:0', 'Friday': '12:0-20:0', 'Saturday': '12:0-20:0', 'Sunday': '10:0-18:0'}"
  },
  {
    "int64_field_0": "4462",
    "business_id": "6eUm6V7WdJO7G_zFVh3eqA",
    "name": "Biketek Pittsburgh",
    "address": "5842 Forbes Ave",
    "city": "Pittsburgh",
    "state": "PA",
    "postal_code": "15217",
    "latitude": "40.4378503",
    "longitude": "-79.9212649",
    "stars": "4.5",
    "review_count": "21",
    "is_open": "1",
    "attributes": "{'BusinessAcceptsCreditCards': 'True', 'RestaurantsPriceRange2': '3', 'BusinessAcceptsBitcoin': 'False', 'BusinessParking': \"{'garage': False, 'street': True, 'validated': False, 'lot': False, 'valet': False}\", 'BikeParking': 'True', 'DogsAllowed': 'True', 'WheelchairAccessible': 'True'}",
    "categories": "Bike Repair/Maintenance, Local Services, Bikes, Sporting Goods, Active Life, Shopping, Bike Rentals",
    "hours": "{'Monday': '11:0-19:0', 'Tuesday': '11:0-19:0', 'Wednesday': '11:0-19:0', 'Thursday': '11:0-19:0', 'Friday': '11:0-17:0', 'Saturday': '11:0-17:0', 'Sunday': '12:0-15:0'}"
  },
  {
    "int64_field_0": "5195",
    "business_id": "qC6RM4DhD6ZaYigqEkbd2w",
    "name": "Boutique la Passerelle",
    "address": "417 Wood St",
    "city": "Pittsburgh",
    "state": "PA",
    "postal_code": "15222",
    "latitude": "40.4398568",
    "longitude": "-80.0009918",
    "stars": "4.5",
    "review_count": "11",
    "is_open": "1",
    "attributes": "{'BikeParking': 'True', 'RestaurantsPriceRange2': '3', 'BusinessAcceptsCreditCards': 'True', 'BusinessParking': \"{'garage': True, 'street': True, 'validated': False, 'lot': False, 'valet': False}\"}",
    "categories": "Women's Clothing, Shopping, Fashion, Shoe Stores, Accessories",
    "hours": "{'Monday': '0:0-0:0', 'Tuesday': '11:0-15:0', 'Wednesday': '11:0-15:0', 'Thursday': '11:0-15:0', 'Friday': '11:0-15:0', 'Saturday': '11:0-16:0', 'Sunday': '11:0-16:0'}"
  },
  {
    "int64_field_0": "5710",
    "business_id": "hQ1MOXOV5GBjAJv9W88lwQ",
    "name": "Hot Rod Body Piercing Co.",
    "address": "115 Oakland Ave, Fl 2",
    "city": "Pittsburgh",
    "state": "PA",
    "postal_code": "15213",
    "latitude": "40.4419592",
    "longitude": "-79.9572204",
    "stars": "4.5",
    "review_count": "37",
    "is_open": "1",
    "attributes": "{'ByAppointmentOnly': 'False', 'BusinessAcceptsCreditCards': 'True', 'BikeParking': 'True', 'BusinessParking': \"{'garage': False, 'street': True, 'validated': False, 'lot': False, 'valet': False}\", 'RestaurantsPriceRange2': '2'}",
    "categories": "Shopping, Piercing, Jewelry, Beauty & Spas",
    "hours": "{'Monday': '13:0-21:0', 'Tuesday': '13:0-21:0', 'Wednesday': '13:0-21:0', 'Thursday': '13:0-21:0', 'Friday': '13:0-21:0', 'Saturday': '13:0-21:0'}"
  },
  {
    "int64_field_0": "6119",
    "business_id": "efSbCWuU0FJbLmPC5CDfdg",
    "name": "Bicycle Heaven",
    "address": "1800 Preble Ave",
    "city": "Pittsburgh",
    "state": "PA",
    "postal_code": "15233",
    "latitude": "40.4563577",
    "longitude": "-80.0324464",
    "stars": "5.0",
    "review_count": "146",
    "is_open": "1",
    "attributes": "{'BikeParking': 'True', 'BusinessParking': \"{'garage': False, 'street': False, 'validated': False, 'lot': True, 'valet': False}\", 'GoodForKids': 'True', 'BusinessAcceptsCreditCards': 'True', 'ByAppointmentOnly': 'False', 'RestaurantsPriceRange2': '1'}",
    "categories": "Antiques, Local Services, Bikes, Shopping, Museums, Bike Repair/Maintenance, Sporting Goods, Arts & Entertainment",
    "hours": "{'Monday': '10:0-19:0', 'Tuesday': '10:0-19:0', 'Wednesday': '10:0-19:0', 'Thursday': '10:0-19:0', 'Friday': '10:0-19:0', 'Saturday': '10:0-19:0', 'Sunday': '10:0-19:0'}"
  },
  {
    "int64_field_0": "10596",
    "business_id": "aYsns6ELqLivkMMH2OcIOA",
    "name": "GreenSinner Floral Event Design",
    "address": "5232 Butler St",
    "city": "Pittsburgh",
    "state": "PA",
    "postal_code": "15201",
    "latitude": "40.481405",
    "longitude": "-79.953875",
    "stars": "4.5",
    "review_count": "13",
    "is_open": "1",
    "attributes": "{'RestaurantsDelivery': 'True', 'RestaurantsPriceRange2': '3', 'BusinessParking': \"{'garage': False, 'street': True, 'validated': False, 'lot': True, 'valet': False}\", 'BusinessAcceptsCreditCards': 'True'}",
    "categories": "Flowers & Gifts, Florists, Home & Garden, Wedding Planning, Shopping, Nurseries & Gardening, Event Planning & Services, Floral Designers",
    "hours": null
  },
  {
    "int64_field_0": "12665",
    "business_id": "KsTsrgto44J3F4vIR0HEAw",
    "name": "Ten Thousand Villages",
    "address": "5820 Forbes Ave",
    "city": "Pittsburgh",
    "state": "PA",
    "postal_code": "15217",
    "latitude": "40.4378519",
    "longitude": "-79.922053",
    "stars": "4.5",
    "review_count": "10",
    "is_open": "1",
    "attributes": "{'BusinessParking': \"{'garage': False, 'street': True, 'validated': False, 'lot': False, 'valet': False}\", 'BikeParking': 'True', 'RestaurantsPriceRange2': '2', 'BusinessAcceptsCreditCards': 'True', 'ByAppointmentOnly': 'False'}",
    "categories": "Jewelry, Home Decor, Shopping, Home & Garden, Event Planning & Services, Arts & Crafts, Cards & Stationery, Flowers & Gifts",
    "hours": "{'Monday': '0:0-0:0', 'Tuesday': '10:0-20:0', 'Wednesday': '10:0-18:0', 'Thursday': '10:0-20:0', 'Friday': '10:0-18:0', 'Saturday': '10:0-18:0', 'Sunday': '11:0-15:0'}"
  },
  {
    "int64_field_0": "14050",
    "business_id": "NjH2Zy8J8nKSfIgOwA1Cbg",
    "name": "Iron City Bikes",
    "address": "3822 Butler St",
    "city": "Pittsburgh",
    "state": "PA",
    "postal_code": "15201",
    "latitude": "40.4671488",
    "longitude": "-79.9638809",
    "stars": "5.0",
    "review_count": "10",
    "is_open": "1",
    "attributes": "{'BikeParking': 'True', 'RestaurantsPriceRange2': '2', 'BusinessParking': \"{'garage': False, 'street': False, 'validated': False, 'lot': True, 'valet': False}\", 'BusinessAcceptsCreditCards': 'True'}",
    "categories": "Bikes, Sporting Goods, Shopping, Active Life, Bike Repair/Maintenance, Bike Rentals, Local Services",
    "hours": "{'Tuesday': '11:0-19:0', 'Wednesday': '11:0-19:0', 'Thursday': '11:0-19:0', 'Friday': '11:0-19:0', 'Saturday': '11:0-17:0', 'Sunday': '12:0-16:0'}"
  },
  {
    "int64_field_0": "14197",
    "business_id": "--wIGbLEhlpl_UeAIyDmZQ",
    "name": "Galaxie Electronics",
    "address": "2136 Murray Ave",
    "city": "Pittsburgh",
    "state": "PA",
    "postal_code": "15217",
    "latitude": "40.4327703",
    "longitude": "-79.9234435",
    "stars": "4.5",
    "review_count": "14",
    "is_open": "1",
    "attributes": "{'BusinessAcceptsCreditCards': 'True'}",
    "categories": "Electronics, Professional Services, Local Services, Electronics Repair, Computers, Shopping",
    "hours": "{'Tuesday': '10:0-18:0', 'Wednesday': '10:0-18:0', 'Thursday': '10:0-18:0', 'Friday': '10:0-18:0', 'Saturday': '10:0-18:0'}"
  },
  {
    "int64_field_0": "19660",
    "business_id": "ZP1KGjhtQ-C1d_z3ItL8jQ",
    "name": "S.W. Randall Toyes & Giftes",
    "address": "630 Smithfield St",
    "city": "Pittsburgh",
    "state": "PA",
    "postal_code": "15222",
    "latitude": "40.4421676",
    "longitude": "-79.9968765",
    "stars": "4.5",
    "review_count": "24",
    "is_open": "1",
    "attributes": "{'BikeParking': 'True', 'BusinessAcceptsCreditCards': 'True', 'BusinessParking': \"{'garage': True, 'street': False, 'validated': False, 'lot': False, 'valet': False}\", 'RestaurantsPriceRange2': '2'}",
    "categories": "Hobby Shops, Flowers & Gifts, Toy Stores, Shopping",
    "hours": "{'Monday': '10:0-17:30', 'Tuesday': '10:0-17:30', 'Wednesday': '10:0-17:30', 'Thursday': '10:0-17:30', 'Friday': '10:0-17:30', 'Saturday': '10:0-17:30'}"
  },
  {
    "int64_field_0": "21811",
    "business_id": "ATbnabmZappvijrKdnuFvA",
    "name": "Jim Ludwig's Blumengarten Florist",
    "address": "2650 Penn Ave",
    "city": "Pittsburgh",
    "state": "PA",
    "postal_code": "15222",
    "latitude": "40.4556935",
    "longitude": "-79.9770276",
    "stars": "4.5",
    "review_count": "60",
    "is_open": "1",
    "attributes": "{'BusinessAcceptsCreditCards': 'True', 'RestaurantsDelivery': 'True', 'BikeParking': 'True', 'RestaurantsPriceRange2': '2', 'BusinessParking': \"{'garage': False, 'street': True, 'validated': False, 'lot': True, 'valet': False}\"}",
    "categories": "Flowers & Gifts, Shopping, Florists",
    "hours": "{'Monday': '0:0-0:0', 'Tuesday': '8:0-16:30', 'Wednesday': '8:0-16:30', 'Thursday': '8:0-16:30', 'Friday': '8:0-16:30', 'Saturday': '8:0-14:30'}"
  },
  {
    "int64_field_0": "21826",
    "business_id": "l1Y-eGCg2nVxklM5Ti6_6w",
    "name": "The Farmer's Daughter Flowers",
    "address": "431 E Ohio St",
    "city": "Pittsburgh",
    "state": "PA",
    "postal_code": "15212",
    "latitude": "40.4533361",
    "longitude": "-80.000576",
    "stars": "4.5",
    "review_count": "32",
    "is_open": "1",
    "attributes": "{'BusinessParking': \"{'garage': False, 'street': False, 'validated': False, 'lot': False, 'valet': False}\", 'RestaurantsPriceRange2': '2', 'BikeParking': 'True', 'RestaurantsDelivery': 'True', 'BusinessAcceptsCreditCards': 'True'}",
    "categories": "Florists, Flowers & Gifts, Shopping",
    "hours": "{'Tuesday': '11:0-19:0', 'Wednesday': '11:0-19:0', 'Thursday': '11:0-19:0', 'Friday': '11:0-19:0', 'Saturday': '11:0-16:0'}"
  },
  {
    "int64_field_0": "22776",
    "business_id": "-ME7F1xPHdtyje-SzQPnkw",
    "name": "Paint Monkey",
    "address": "4020 Butler St",
    "city": "Pittsburgh",
    "state": "PA",
    "postal_code": "15201",
    "latitude": "40.4691015",
    "longitude": "-79.9614983",
    "stars": "5.0",
    "review_count": "13",
    "is_open": "1",
    "attributes": "{'BikeParking': 'True', 'RestaurantsPriceRange2': '2', 'BusinessAcceptsCreditCards': 'True', 'GoodForKids': 'True'}",
    "categories": "Paint & Sip, Arts & Crafts, Education, Art Classes, Party & Event Planning, Arts & Entertainment, Event Planning & Services, Shopping",
    "hours": "{'Wednesday': '17:0-21:0', 'Thursday': '5:0-21:0', 'Friday': '17:0-22:0', 'Saturday': '12:0-22:0', 'Sunday': '12:0-16:0'}"
  },
  {
    "int64_field_0": "24960",
    "business_id": "wfgM-QIJq-9v61ee_EmlWQ",
    "name": "Pageboy Salon & Boutique",
    "address": "3613 Butler St",
    "city": "Pittsburgh",
    "state": "PA",
    "postal_code": "15201",
    "latitude": "40.4658233",
    "longitude": "-79.9652891",
    "stars": "4.5",
    "review_count": "45",
    "is_open": "1",
    "attributes": "{'GoodForKids': 'False', 'BusinessAcceptsCreditCards': 'True', 'BusinessParking': \"{'garage': False, 'street': True, 'validated': False, 'lot': False, 'valet': False}\", 'BikeParking': 'True', 'ByAppointmentOnly': 'True', 'RestaurantsPriceRange2': '2'}",
    "categories": "Waxing, Fashion, Beauty & Spas, Hair Salons, Eyebrow Services, Shopping, Hair Removal, Hair Extensions, Women's Clothing",
    "hours": "{'Tuesday': '12:0-20:0', 'Wednesday': '12:0-20:0', 'Thursday': '12:0-20:0', 'Friday': '12:0-19:0', 'Saturday': '9:0-15:0', 'Sunday': '9:0-15:0'}"
  },
  {
    "int64_field_0": "30974",
    "business_id": "kCtDDd4YzCtgedYClsVIAw",
    "name": "Orr's Jewelers",
    "address": "5857 Forbes Ave",
    "city": "Pittsburgh",
    "state": "PA",
    "postal_code": "15217",
    "latitude": "40.4382921",
    "longitude": "-79.9207394",
    "stars": "4.5",
    "review_count": "31",
    "is_open": "1",
    "attributes": "{'BusinessParking': \"{'garage': False, 'street': True, 'validated': False, 'lot': False, 'valet': False}\", 'BusinessAcceptsCreditCards': 'True', 'BikeParking': 'True', 'RestaurantsPriceRange2': '4', 'ByAppointmentOnly': 'False'}",
    "categories": "Jewelry, Watches, Shopping, Watch Repair, Local Services",
    "hours": "{'Monday': '0:0-0:0', 'Tuesday': '9:30-20:0', 'Wednesday': '9:30-17:0', 'Thursday': '9:30-20:0', 'Friday': '9:30-17:0', 'Saturday': '9:30-17:0', 'Sunday': '10:0-16:0'}"
  },
  {
    "int64_field_0": "33379",
    "business_id": "XJPPcsVJXAvc21FUeySC2w",
    "name": "David's Bridal - We've Moved!",
    "address": "8013 Mcknight Rd",
    "city": "Pittsburgh",
    "state": "PA",
    "postal_code": "15237",
    "latitude": "40.5500304587",
    "longitude": "-80.0207403648",
    "stars": "4.5",
    "review_count": "37",
    "is_open": "1",
    "attributes": "{'ByAppointmentOnly': 'False', 'BusinessAcceptsCreditCards': 'True', 'BikeParking': 'True', 'BusinessParking': \"{'garage': False, 'street': False, 'validated': False, 'lot': True, 'valet': False}\", 'RestaurantsPriceRange2': '2'}",
    "categories": "Shoe Stores, Flowers & Gifts, Shopping, Fashion, Accessories, Bridal",
    "hours": "{'Monday': '10:30-21:0', 'Thursday': '10:30-21:0', 'Friday': '10:30-21:0', 'Saturday': '9:0-18:0', 'Sunday': '12:0-18:0'}"
  },
  {
    "int64_field_0": "34877",
    "business_id": "t7E0chL0rY4NNKtkHs7kaQ",
    "name": "Marlene Harris Collection",
    "address": "238 1/2 Freeport Rd",
    "city": "Pittsburgh",
    "state": "PA",
    "postal_code": "15238",
    "latitude": "40.4931484",
    "longitude": "-79.9119458",
    "stars": "4.5",
    "review_count": "29",
    "is_open": "1",
    "attributes": "{'BusinessAcceptsCreditCards': 'True', 'ByAppointmentOnly': 'False', 'RestaurantsPriceRange2': '2', 'BusinessParking': \"{'garage': False, 'street': True, 'validated': False, 'lot': False, 'valet': False}\"}",
    "categories": "Antiques, Shopping, Jewelry",
    "hours": "{'Monday': '10:30-17:0', 'Tuesday': '10:30-17:0', 'Wednesday': '10:30-17:0', 'Thursday': '10:30-17:0', 'Friday': '10:30-17:0', 'Saturday': '10:0-15:0'}"
  },
  {
    "int64_field_0": "36906",
    "business_id": "hWzbOi1-eS8PmPyZRV8Lew",
    "name": "Staghorn Garden Cafe",
    "address": "517 Greenfield Ave",
    "city": "Pittsburgh",
    "state": "PA",
    "postal_code": "15207",
    "latitude": "40.4258227",
    "longitude": "-79.9418473",
    "stars": "4.5",
    "review_count": "51",
    "is_open": "1",
    "attributes": "{'BikeParking': 'True', 'BusinessAcceptsCreditCards': 'True', 'WiFi': \"'free'\", 'RestaurantsPriceRange2': '1', 'Caters': 'False', 'RestaurantsTakeOut': 'True', 'OutdoorSeating': 'True', 'RestaurantsDelivery': 'False', 'BusinessParking': \"{'garage': False, 'street': True, 'validated': False, 'lot': False, 'valet': False}\"}",
    "categories": "Shopping, Bakeries, Coffee & Tea, Food, Home & Garden, Arts & Crafts, Home Decor",
    "hours": "{'Tuesday': '7:0-17:0', 'Wednesday': '7:0-17:0', 'Thursday': '7:0-17:0', 'Friday': '7:0-17:0', 'Saturday': '7:0-17:0', 'Sunday': '8:0-15:0'}"
  },
  {
    "int64_field_0": "36956",
    "business_id": "x_DjeSEMkJkFHzSTfKYHvA",
    "name": "West Liberty Cycles",
    "address": "801 Brookline Blvd",
    "city": "Pittsburgh",
    "state": "PA",
    "postal_code": "15226",
    "latitude": "40.393858",
    "longitude": "-80.019631",
    "stars": "4.5",
    "review_count": "14",
    "is_open": "1",
    "attributes": "{'BusinessParking': \"{'garage': False, 'street': True, 'validated': False, 'lot': False, 'valet': False}\", 'RestaurantsPriceRange2': '2', 'BusinessAcceptsCreditCards': 'True', 'BikeParking': 'True', 'GoodForKids': 'True'}",
    "categories": "Shopping, Bike Repair/Maintenance, Local Services, Bike Rentals, Active Life, Sporting Goods, Bikes",
    "hours": "{'Monday': '0:0-0:0', 'Tuesday': '10:0-15:0', 'Wednesday': '10:0-20:0', 'Thursday': '10:0-18:0', 'Friday': '10:0-18:0', 'Saturday': '10:0-18:0'}"
  },
  {
    "int64_field_0": "37419",
    "business_id": "dIsUtYng6lzaaLOqHlkOMA",
    "name": "Jerry's Records",
    "address": "2136 Murray Ave",
    "city": "Pittsburgh",
    "state": "PA",
    "postal_code": "15217",
    "latitude": "40.4327703",
    "longitude": "-79.9234435",
    "stars": "4.5",
    "review_count": "71",
    "is_open": "1",
    "attributes": "{'BusinessParking': \"{'garage': False, 'street': True, 'validated': False, 'lot': False, 'valet': False}\", 'RestaurantsPriceRange2': '1', 'BusinessAcceptsCreditCards': 'False', 'BikeParking': 'True'}",
    "categories": "Shopping, Vinyl Records, Books, Mags, Music & Video, Music & DVDs",
    "hours": "{'Tuesday': '10:0-18:0', 'Wednesday': '10:0-18:0', 'Thursday': '10:0-18:0', 'Friday': '10:0-18:0', 'Saturday': '10:0-18:0', 'Sunday': '12:0-17:0'}"
  },
  {
    "int64_field_0": "42202",
    "business_id": "kOgOqwII2AOVN1WPb94-jQ",
    "name": "Amazing Books & Records",
    "address": "2030 Murray Ave",
    "city": "Pittsburgh",
    "state": "PA",
    "postal_code": "15217",
    "latitude": "40.4339446",
    "longitude": "-79.9231802",
    "stars": "5.0",
    "review_count": "12",
    "is_open": "1",
    "attributes": "{'BusinessParking': \"{'garage': False, 'street': True, 'validated': False, 'lot': False, 'valet': False}\", 'BusinessAcceptsCreditCards': 'True', 'DogsAllowed': 'True', 'BikeParking': 'True', 'RestaurantsPriceRange2': '1'}",
    "categories": "Vinyl Records, Bookstores, Shopping, Books, Mags, Music & Video",
    "hours": "{'Monday': '0:0-0:0', 'Tuesday': '11:30-21:0', 'Wednesday': '11:30-21:0', 'Thursday': '11:30-21:0', 'Friday': '11:30-16:15', 'Sunday': '11:30-21:0'}"
  },
  {
    "int64_field_0": "44783",
    "business_id": "nytVs5PeKgyRMBeK7TxeSw",
    "name": "Kards Unlimited",
    "address": "5522 Walnut St",
    "city": "Pittsburgh",
    "state": "PA",
    "postal_code": "15232",
    "latitude": "40.4512012",
    "longitude": "-79.9328073",
    "stars": "4.5",
    "review_count": "52",
    "is_open": "1",
    "attributes": "{'BusinessAcceptsCreditCards': 'True', 'BusinessParking': \"{'garage': False, 'street': True, 'validated': False, 'lot': False, 'valet': False}\", 'RestaurantsPriceRange2': '2', 'BikeParking': 'True'}",
    "categories": "Gift Shops, Books, Mags, Music & Video, Flowers & Gifts, Event Planning & Services, Arts & Crafts, Shopping, Bookstores, Cards & Stationery",
    "hours": "{'Monday': '9:30-21:0', 'Tuesday': '9:30-21:0', 'Wednesday': '9:30-21:0', 'Thursday': '9:30-21:0', 'Friday': '9:30-21:0', 'Saturday': '9:30-21:0', 'Sunday': '12:0-17:0'}"
  },
  {
    "int64_field_0": "45112",
    "business_id": "KsTA7_Ps9NucN-VAjy4GOA",
    "name": "The Collection",
    "address": "732 Filbert St, Ste 1",
    "city": "Pittsburgh",
    "state": "PA",
    "postal_code": "15232",
    "latitude": "40.4517034542",
    "longitude": "-79.9332416963",
    "stars": "4.5",
    "review_count": "10",
    "is_open": "0",
    "attributes": "{'BikeParking': 'True', 'BusinessAcceptsBitcoin': 'False', 'ByAppointmentOnly': 'False', 'BusinessAcceptsCreditCards': 'True', 'RestaurantsPriceRange2': '3', 'BusinessParking': \"{'garage': False, 'street': True, 'validated': False, 'lot': False, 'valet': False}\"}",
    "categories": "Local Services, Jewelry, Jewelry Repair, Shopping, Pawn Shops",
    "hours": "{'Tuesday': '10:0-17:0', 'Wednesday': '10:0-17:0', 'Thursday': '10:0-17:0', 'Friday': '10:0-17:0', 'Saturday': '10:0-17:0'}"
  },
  {
    "int64_field_0": "46630",
    "business_id": "jZ5IN3qemzDWkJsBGI2DyA",
    "name": "White Whale Bookstore",
    "address": "4754 Liberty Ave",
    "city": "Pittsburgh",
    "state": "PA",
    "postal_code": "15222",
    "latitude": "40.4611065",
    "longitude": "-79.9482096",
    "stars": "5.0",
    "review_count": "18",
    "is_open": "1",
    "attributes": "{'BusinessParking': \"{'garage': False, 'street': True, 'validated': False, 'lot': False, 'valet': False}\", 'RestaurantsPriceRange2': '1', 'BusinessAcceptsCreditCards': 'True', 'BikeParking': 'True'}",
    "categories": "Bookstores, Books, Mags, Music & Video, Shopping",
    "hours": "{'Tuesday': '11:0-19:0', 'Wednesday': '11:0-19:0', 'Thursday': '11:0-19:0', 'Friday': '11:0-19:0', 'Saturday': '11:0-19:0', 'Sunday': '12:0-16:0'}"
  },
  {
    "int64_field_0": "47876",
    "business_id": "XWU1txx1IbeHFiRJgbksqA",
    "name": "Games Unlimited",
    "address": "2115 Murray Ave",
    "city": "Pittsburgh",
    "state": "PA",
    "postal_code": "15217",
    "latitude": "40.433235",
    "longitude": "-79.922761",
    "stars": "5.0",
    "review_count": "25",
    "is_open": "1",
    "attributes": "{'BusinessAcceptsCreditCards': 'True', 'BusinessParking': \"{'garage': False, 'street': True, 'validated': False, 'lot': False, 'valet': False}\", 'RestaurantsPriceRange2': '2', 'BikeParking': 'True'}",
    "categories": "Shopping, Hobby Shops, Tabletop Games, Books, Mags, Music & Video, Video Game Stores",
    "hours": "{'Monday': '11:0-19:0', 'Tuesday': '11:0-19:0', 'Wednesday': '11:0-19:0', 'Thursday': '11:0-19:0', 'Friday': '11:0-19:0', 'Saturday': '11:0-19:0', 'Sunday': '11:0-17:0'}"
  },
  {
    "int64_field_0": "48793",
    "business_id": "dpXDPvro4CJi2mhC0ohx5A",
    "name": "Pittsburgh Glass Center",
    "address": "5472 Penn Ave",
    "city": "Pittsburgh",
    "state": "PA",
    "postal_code": "15206",
    "latitude": "40.4640804",
    "longitude": "-79.9328829",
    "stars": "4.5",
    "review_count": "26",
    "is_open": "1",
    "attributes": null,
    "categories": "Education, Specialty Schools, Art Schools, Glass Blowing, Shopping, Arts & Entertainment, Art Galleries, Art Classes",
    "hours": "{'Monday': '0:0-0:0', 'Tuesday': '10:0-19:0', 'Wednesday': '10:0-19:0', 'Thursday': '10:0-19:0', 'Friday': '10:0-16:0', 'Saturday': '10:0-16:0', 'Sunday': '10:0-16:0'}"
  },
  {
    "int64_field_0": "49950",
    "business_id": "czJKX4DmZR_1JeRmPcnmbQ",
    "name": "Las Palmas Carniceria",
    "address": "700 Brookline Blvd",
    "city": "Pittsburgh",
    "state": "PA",
    "postal_code": "15226",
    "latitude": "40.3945796",
    "longitude": "-80.0217308",
    "stars": "4.5",
    "review_count": "213",
    "is_open": "1",
    "attributes": "{'BusinessAcceptsCreditCards': 'True', 'RestaurantsReservations': 'False', 'RestaurantsAttire': \"u'casual'\", 'RestaurantsDelivery': 'False', 'Ambience': \"{'romantic': False, 'intimate': False, 'touristy': False, 'hipster': False, 'divey': False, 'classy': False, 'trendy': False, 'upscale': False, 'casual': True}\", 'OutdoorSeating': 'False', 'RestaurantsPriceRange2': '1', 'WiFi': \"u'no'\", 'Alcohol': \"u'none'\", 'NoiseLevel': \"u'average'\", 'RestaurantsTakeOut': 'True', 'HasTV': 'False', 'BusinessParking': \"{'garage': False, 'street': True, 'validated': False, 'lot': False, 'valet': False}\", 'GoodForKids': 'True', 'GoodForMeal': \"{'dessert': False, 'latenight': False, 'lunch': True, 'dinner': True, 'brunch': False, 'breakfast': False}\", 'BikeParking': 'True', 'Caters': 'False', 'RestaurantsGoodForGroups': 'True'}",
    "categories": "Restaurants, Shopping, Food, Mexican",
    "hours": "{'Monday': '9:0-22:0', 'Tuesday': '9:0-22:0', 'Wednesday': '9:0-22:0', 'Thursday': '9:0-22:0', 'Friday': '9:0-22:0', 'Saturday': '9:0-22:0', 'Sunday': '9:0-22:0'}"
  },
  {
    "int64_field_0": "53296",
    "business_id": "4C9m63Xk7QVCk5ykJIPkjQ",
    "name": "Commonwealth Press",
    "address": "415 West Warrington Ave",
    "city": "Pittsburgh",
    "state": "PA",
    "postal_code": "15210",
    "latitude": "40.4187375",
    "longitude": "-80.009954",
    "stars": "4.5",
    "review_count": "20",
    "is_open": "1",
    "attributes": "{'BusinessAcceptsCreditCards': 'True', 'RestaurantsPriceRange2': '2', 'BikeParking': 'False', 'BusinessParking': \"{'garage': False, 'street': False, 'validated': False, 'lot': False, 'valet': False}\"}",
    "categories": "Screen Printing, Shopping, Local Services",
    "hours": "{'Monday': '9:0-17:30', 'Tuesday': '9:0-17:30', 'Wednesday': '9:0-17:30', 'Thursday': '9:0-17:30', 'Friday': '9:0-17:30'}"
  },
  {
    "int64_field_0": "53887",
    "business_id": "hdVCaoubEUQTYDszSyTtig",
    "name": "Lush Cosmetics",
    "address": "301 S Hills Village",
    "city": "Pittsburgh",
    "state": "PA",
    "postal_code": "15241",
    "latitude": "40.3432891098",
    "longitude": "-80.0575194937",
    "stars": "5.0",
    "review_count": "12",
    "is_open": "1",
    "attributes": null,
    "categories": "Beauty & Spas, Shopping, Cosmetics & Beauty Supply",
    "hours": "{'Monday': '10:0-21:0', 'Tuesday': '10:0-21:0', 'Wednesday': '10:0-21:0', 'Thursday': '10:0-21:0', 'Friday': '10:0-21:0', 'Saturday': '10:0-21:0', 'Sunday': '11:0-18:0'}"
  },
  {
    "int64_field_0": "55219",
    "business_id": "WLw3hbb7-UOmg2i1kd7r_g",
    "name": "Dr Phone Fix & Repair Pittsburgh",
    "address": "250 Summit Park Dr",
    "city": "Pittsburgh",
    "state": "PA",
    "postal_code": "15275",
    "latitude": "40.4469586",
    "longitude": "-80.1772622",
    "stars": "4.5",
    "review_count": "10",
    "is_open": "1",
    "attributes": "{'BusinessAcceptsCreditCards': 'True', 'BusinessAcceptsBitcoin': 'False'}",
    "categories": "Mobile Phone Repair, Mobile Phones, Local Services, Shopping, IT Services & Computer Repair, Electronics Repair",
    "hours": "{'Monday': '11:0-20:0', 'Tuesday': '11:0-20:0', 'Wednesday': '11:0-20:0', 'Thursday': '11:0-20:0', 'Friday': '11:0-20:0', 'Saturday': '11:0-20:0', 'Sunday': '11:0-18:0'}"
  },
  {
    "int64_field_0": "55230",
    "business_id": "jZOiACYhr7wP0zNnQL4LFg",
    "name": "Ten Toes of Pittsburgh Inc",
    "address": "5502 Walnut St",
    "city": "Pittsburgh",
    "state": "PA",
    "postal_code": "15232",
    "latitude": "40.4509831",
    "longitude": "-79.9335455",
    "stars": "4.5",
    "review_count": "24",
    "is_open": "1",
    "attributes": "{'BusinessParking': \"{'garage': False, 'street': True, 'validated': False, 'lot': False, 'valet': False}\", 'BikeParking': 'True', 'RestaurantsPriceRange2': '2', 'BusinessAcceptsCreditCards': 'True'}",
    "categories": "Shoe Stores, Shopping, Fashion",
    "hours": "{'Monday': '10:0-19:0', 'Tuesday': '10:0-19:0', 'Wednesday': '10:0-20:0', 'Thursday': '10:0-19:0', 'Friday': '10:0-19:0', 'Saturday': '10:0-19:0', 'Sunday': '11:30-17:0'}"
  },
  {
    "int64_field_0": "59057",
    "business_id": "9oByIzI1hv89Pk-Za8-EMQ",
    "name": "20/20 Opticians",
    "address": "4203 Murray Ave",
    "city": "Pittsburgh",
    "state": "PA",
    "postal_code": "15217",
    "latitude": "40.4229632",
    "longitude": "-79.9285232",
    "stars": "4.5",
    "review_count": "20",
    "is_open": "1",
    "attributes": "{'BusinessParking': \"{'garage': False, 'street': True, 'validated': False, 'lot': False, 'valet': False}\", 'BusinessAcceptsCreditCards': 'True', 'RestaurantsPriceRange2': '2', 'BikeParking': 'True'}",
    "categories": "Shopping, Eyewear & Opticians",
    "hours": "{'Monday': '8:30-17:0', 'Tuesday': '8:30-19:0', 'Wednesday': '8:30-17:0', 'Thursday': '8:30-19:0', 'Friday': '8:30-15:0', 'Saturday': '8:30-15:0'}"
  },
  {
    "int64_field_0": "60252",
    "business_id": "2099abC1lsypFGDJVG5uIQ",
    "name": "4121 Main",
    "address": "4121 Main St",
    "city": "Pittsburgh",
    "state": "PA",
    "postal_code": "15224",
    "latitude": "40.4652584",
    "longitude": "-79.9543423",
    "stars": "4.5",
    "review_count": "32",
    "is_open": "1",
    "attributes": "{'BikeParking': 'True', 'GoodForKids': 'False', 'BusinessParking': \"{'garage': False, 'street': True, 'validated': False, 'lot': False, 'valet': False}\", 'RestaurantsTakeOut': 'True', 'WiFi': \"'no'\", 'Caters': 'False', 'RestaurantsDelivery': 'False', 'OutdoorSeating': 'False', 'ByAppointmentOnly': 'False', 'RestaurantsPriceRange2': '2', 'BusinessAcceptsCreditCards': 'True'}",
    "categories": "Arts & Entertainment, Florists, Party & Event Planning, Shopping, Coffee & Tea, Flowers & Gifts, Event Planning & Services, Food, Art Galleries",
    "hours": "{'Friday': '9:0-17:0', 'Saturday': '9:0-17:0', 'Sunday': '9:0-17:0'}"
  },
  {
    "int64_field_0": "61984",
    "business_id": "xExez3LxEULhqXE9lorcAQ",
    "name": "Bella Bridesmaids",
    "address": "1752 N Highland Rd",
    "city": "Pittsburgh",
    "state": "PA",
    "postal_code": "15241",
    "latitude": "40.3496435",
    "longitude": "-80.0524988",
    "stars": "4.5",
    "review_count": "10",
    "is_open": "1",
    "attributes": "{'BusinessAcceptsCreditCards': 'True', 'BusinessParking': \"{'garage': False, 'street': False, 'validated': False, 'lot': False, 'valet': False}\", 'ByAppointmentOnly': 'True', 'BikeParking': 'True'}",
    "categories": "Women's Clothing, Fashion, Shopping, Bridal",
    "hours": "{'Tuesday': '11:0-17:0', 'Wednesday': '13:0-19:0', 'Thursday': '11:0-17:0', 'Friday': '11:0-16:0', 'Saturday': '10:0-16:0'}"
  },
  {
    "int64_field_0": "63799",
    "business_id": "fw2V7tFKHQlhHy4bNoSyXg",
    "name": "Larrimor's",
    "address": "249 Fifth Ave",
    "city": "Pittsburgh",
    "state": "PA",
    "postal_code": "15222",
    "latitude": "40.4411909",
    "longitude": "-80.0004856",
    "stars": "5.0",
    "review_count": "21",
    "is_open": "1",
    "attributes": "{'BusinessAcceptsCreditCards': 'True', 'BusinessParking': \"{'garage': False, 'street': False, 'validated': True, 'lot': False, 'valet': False}\", 'RestaurantsPriceRange2': '3', 'BikeParking': 'True'}",
    "categories": "Men's Clothing, Accessories, Shoe Stores, Fashion, Women's Clothing, Shopping",
    "hours": "{'Monday': '9:0-18:0', 'Tuesday': '9:0-18:0', 'Wednesday': '9:0-18:0', 'Thursday': '9:0-20:0', 'Friday': '9:0-18:0', 'Saturday': '9:0-18:0'}"
  },
  {
    "int64_field_0": "65040",
    "business_id": "WgkoKRxpK7u4VDEvkcMUJg",
    "name": "Brooks Diamonds",
    "address": "717 Liberty Ave, Ste 303",
    "city": "Pittsburgh",
    "state": "PA",
    "postal_code": "15222",
    "latitude": "40.4427705",
    "longitude": "-79.9994015",
    "stars": "4.5",
    "review_count": "11",
    "is_open": "1",
    "attributes": "{'ByAppointmentOnly': 'False', 'BusinessParking': \"{'garage': True, 'street': True, 'validated': False, 'lot': False, 'valet': False}\", 'BusinessAcceptsCreditCards': 'True', 'BikeParking': 'True', 'RestaurantsPriceRange2': '2'}",
    "categories": "Shopping, Watches, Jewelry, Bridal, Jewelry Repair, Local Services",
    "hours": "{'Monday': '9:30-16:30', 'Tuesday': '9:30-16:30', 'Wednesday': '9:30-16:30', 'Thursday': '9:30-16:30', 'Friday': '9:30-16:30', 'Saturday': '10:0-15:0'}"
  },
  {
    "int64_field_0": "65675",
    "business_id": "fXhChaw2jPpq2QItLSfVCg",
    "name": "Love Bikes",
    "address": "4102 Butler St",
    "city": "Pittsburgh",
    "state": "PA",
    "postal_code": "15201",
    "latitude": "40.4694096",
    "longitude": "-79.9611374",
    "stars": "4.5",
    "review_count": "10",
    "is_open": "1",
    "attributes": "{'BusinessAcceptsCreditCards': 'True', 'BusinessParking': \"{'garage': False, 'street': True, 'validated': False, 'lot': False, 'valet': False}\", 'BikeParking': 'True', 'RestaurantsPriceRange2': '1'}",
    "categories": "Motorcycle Dealers, Shopping, Bike Repair/Maintenance, Automotive, Sporting Goods, Local Services, Bikes",
    "hours": "{'Tuesday': '10:0-18:0', 'Wednesday': '10:0-18:0', 'Thursday': '10:0-18:0', 'Friday': '10:0-18:0', 'Saturday': '10:0-17:0'}"
  },
  {
    "int64_field_0": "69318",
    "business_id": "YN8pgoAGNfk8J3LKmSVJ2w",
    "name": "Red Star Kombucha",
    "address": "433 Graeme St",
    "city": "Pittsburgh",
    "state": "PA",
    "postal_code": "15232",
    "latitude": "40.441162461",
    "longitude": "-80.0026917804",
    "stars": "5.0",
    "review_count": "17",
    "is_open": "1",
    "attributes": "{'BusinessAcceptsCreditCards': 'True', 'RestaurantsTakeOut': 'True', 'BusinessParking': \"{'garage': False, 'street': True, 'validated': False, 'lot': False, 'valet': False}\", 'WheelchairAccessible': 'False', 'BusinessAcceptsBitcoin': 'False', 'BikeParking': 'True', 'RestaurantsPriceRange2': '1', 'Caters': 'False'}",
    "categories": "Tea Rooms, Arts & Entertainment, Breweries, Kombucha, Art Galleries, Shopping, Food",
    "hours": "{'Tuesday': '11:0-19:0', 'Wednesday': '11:0-19:0', 'Thursday': '11:0-19:0', 'Friday': '11:0-21:0', 'Saturday': '11:0-21:0', 'Sunday': '11:0-19:0'}"
  },
  {
    "int64_field_0": "69375",
    "business_id": "Cvzt440DVh7EHbLT69wbvw",
    "name": "Fleet Feet",
    "address": "1751 N Highland Rd",
    "city": "Pittsburgh",
    "state": "PA",
    "postal_code": "15241",
    "latitude": "40.3495872",
    "longitude": "-80.0528363",
    "stars": "5.0",
    "review_count": "26",
    "is_open": "1",
    "attributes": "{'BikeParking': 'False', 'RestaurantsPriceRange2': '3', 'BusinessAcceptsCreditCards': 'True', 'BusinessParking': \"{'garage': False, 'street': False, 'validated': False, 'lot': True, 'valet': False}\"}",
    "categories": "Shoe Stores, Sports Wear, Shopping, Fashion, Sporting Goods",
    "hours": "{'Monday': '10:0-19:0', 'Tuesday': '10:0-19:0', 'Wednesday': '10:0-19:0', 'Thursday': '10:0-19:0', 'Friday': '10:0-19:0', 'Saturday': '10:0-17:0', 'Sunday': '12:0-17:0'}"
  },
  {
    "int64_field_0": "70768",
    "business_id": "783qMhPSIRhMvM5O8WXiww",
    "name": "HomeGoods",
    "address": "2000 Park Manor Blvd",
    "city": "Pittsburgh",
    "state": "PA",
    "postal_code": "15205",
    "latitude": "40.453885",
    "longitude": "-80.1697818",
    "stars": "4.5",
    "review_count": "15",
    "is_open": "1",
    "attributes": "{'BusinessParking': \"{'garage': False, 'street': False, 'validated': False, 'lot': True, 'valet': False}\", 'RestaurantsPriceRange2': '2', 'BikeParking': 'True', 'BusinessAcceptsCreditCards': 'True'}",
    "categories": "Home Decor, Discount Store, Shopping, Home & Garden",
    "hours": "{'Monday': '9:30-21:30', 'Tuesday': '9:30-21:30', 'Wednesday': '9:30-21:30', 'Thursday': '9:30-21:30', 'Friday': '9:30-22:0', 'Saturday': '9:30-22:0', 'Sunday': '11:0-20:0'}"
  },
  {
    "int64_field_0": "71385",
    "business_id": "_9Fp8T6mPHUO1AhLhbAoXQ",
    "name": "Paul Michael Design",
    "address": "3453 Butler St",
    "city": "Pittsburgh",
    "state": "PA",
    "postal_code": "15201",
    "latitude": "40.4634122266",
    "longitude": "-79.9668086246",
    "stars": "5.0",
    "review_count": "22",
    "is_open": "1",
    "attributes": "{'RestaurantsPriceRange2': '2', 'BusinessParking': \"{'garage': False, 'street': True, 'validated': False, 'lot': False, 'valet': False}\", 'BusinessAcceptsCreditCards': 'True', 'ByAppointmentOnly': 'False', 'BikeParking': 'True'}",
    "categories": "Shopping, Local Services, Appraisal Services, Jewelry Repair, Jewelry",
    "hours": "{'Monday': '0:0-0:0', 'Tuesday': '11:0-17:0', 'Wednesday': '11:0-17:0', 'Thursday': '11:0-17:0', 'Friday': '11:0-17:0', 'Saturday': '11:0-17:0'}"
  },
  {
    "int64_field_0": "72877",
    "business_id": "2jtiYFURN-6bkuUgcCGcJw",
    "name": "Brilliant Nuevo Diamonds",
    "address": "717 Liberty Ave, Ste 306",
    "city": "Pittsburgh",
    "state": "PA",
    "postal_code": "15222",
    "latitude": "40.4427717",
    "longitude": "-79.9992898",
    "stars": "4.5",
    "review_count": "13",
    "is_open": "1",
    "attributes": "{'BikeParking': 'False', 'ByAppointmentOnly': 'False', 'WheelchairAccessible': 'True', 'BusinessAcceptsCreditCards': 'True'}",
    "categories": "Jewelry Repair, Local Services, Jewelry, Watches, Accessories, Fashion, Shopping",
    "hours": "{'Monday': '12:0-18:0', 'Tuesday': '12:0-18:0', 'Wednesday': '12:0-18:0', 'Thursday': '11:0-17:0', 'Friday': '10:0-17:0', 'Saturday': '10:0-15:0'}"
  },
  {
    "int64_field_0": "78641",
    "business_id": "wirXL-q4nupF-gXxiCKmLw",
    "name": "Steel City Clothing Store",
    "address": "625 Smithfield St",
    "city": "Pittsburgh",
    "state": "PA",
    "postal_code": "15222",
    "latitude": "40.4419947",
    "longitude": "-79.9975571",
    "stars": "4.5",
    "review_count": "14",
    "is_open": "1",
    "attributes": "{'BikeParking': 'True', 'RestaurantsPriceRange2': '2', 'BusinessParking': \"{'garage': True, 'street': True, 'validated': False, 'lot': False, 'valet': False}\", 'BusinessAcceptsCreditCards': 'True'}",
    "categories": "Accessories, Men's Clothing, Shopping, Fashion, Women's Clothing",
    "hours": "{'Monday': '0:0-0:0', 'Tuesday': '10:0-20:0', 'Wednesday': '10:0-20:0', 'Thursday': '10:0-20:0', 'Friday': '10:0-20:0', 'Saturday': '10:0-20:0', 'Sunday': '10:0-18:0'}"
  },
  {
    "int64_field_0": "78669",
    "business_id": "ebgCzdUOElNJirj6eFuXiw",
    "name": "Kindred Cycles",
    "address": "2515 Penn Ave",
    "city": "Pittsburgh",
    "state": "PA",
    "postal_code": "15222",
    "latitude": "40.454386",
    "longitude": "-79.979636",
    "stars": "5.0",
    "review_count": "24",
    "is_open": "1",
    "attributes": "{'BusinessParking': \"{'garage': False, 'street': True, 'validated': False, 'lot': False, 'valet': False}\", 'BusinessAcceptsCreditCards': 'True', 'RestaurantsPriceRange2': '2', 'BikeParking': 'True'}",
    "categories": "Bike Rentals, Bike Repair/Maintenance, Bikes, Shopping, Sporting Goods, Active Life, Local Services",
    "hours": "{'Tuesday': '10:0-19:0', 'Wednesday': '10:0-19:0', 'Thursday': '10:0-19:0', 'Friday': '10:0-19:0', 'Saturday': '10:0-17:0'}"
  },
  {
    "int64_field_0": "81500",
    "business_id": "6MQJMPVi5HobGjx73DaE7Q",
    "name": "Pittsburgh Furniture Company",
    "address": "4312 Butler St",
    "city": "Pittsburgh",
    "state": "PA",
    "postal_code": "15201",
    "latitude": "40.470943",
    "longitude": "-79.9600419",
    "stars": "4.5",
    "review_count": "19",
    "is_open": "1",
    "attributes": "{'BikeParking': 'True', 'RestaurantsPriceRange2': '2', 'BusinessAcceptsCreditCards': 'True', 'BusinessParking': \"{'garage': False, 'street': True, 'validated': False, 'lot': False, 'valet': False}\"}",
    "categories": "Home & Garden, Furniture Stores, Shopping",
    "hours": "{'Tuesday': '12:0-17:0', 'Wednesday': '10:0-19:0', 'Thursday': '10:0-19:0', 'Friday': '12:0-17:0', 'Saturday': '10:0-19:0', 'Sunday': '12:0-17:0'}"
  },
  {
    "int64_field_0": "82119",
    "business_id": "i6daUWbqTYrCJgB9Gk7pDQ",
    "name": "Jupe Boutique",
    "address": "2306 E Carson St",
    "city": "Pittsburgh",
    "state": "PA",
    "postal_code": "15289",
    "latitude": "40.428026",
    "longitude": "-79.972679",
    "stars": "4.5",
    "review_count": "13",
    "is_open": "0",
    "attributes": "{'BusinessParking': \"{'garage': False, 'street': True, 'validated': False, 'lot': False, 'valet': False}\", 'BusinessAcceptsCreditCards': 'True', 'RestaurantsPriceRange2': '2'}",
    "categories": "Women's Clothing, Fashion, Accessories, Shopping",
    "hours": "{'Monday': '11:0-19:0', 'Tuesday': '11:0-19:0', 'Wednesday': '11:0-19:0', 'Thursday': '11:0-19:0', 'Friday': '11:0-19:0', 'Saturday': '11:0-19:0'}"
  },
  {
    "int64_field_0": "82581",
    "business_id": "Mh8rIgIhPTrefqwgRh_uWw",
    "name": "Knit One",
    "address": "2721 Murray Ave",
    "city": "Pittsburgh",
    "state": "PA",
    "postal_code": "15217",
    "latitude": "40.4283108",
    "longitude": "-79.9246088",
    "stars": "4.5",
    "review_count": "10",
    "is_open": "0",
    "attributes": "{'BusinessAcceptsCreditCards': 'True', 'RestaurantsPriceRange2': '3', 'BusinessParking': \"{'garage': False, 'street': True, 'validated': False, 'lot': False, 'valet': False}\"}",
    "categories": "Arts & Crafts, Shopping",
    "hours": "{'Tuesday': '12:0-20:0', 'Wednesday': '12:0-20:0', 'Thursday': '12:0-20:0', 'Friday': '12:0-17:0', 'Saturday': '10:0-17:0'}"
  },
  {
    "int64_field_0": "82637",
    "business_id": "MGIgSvpT89CnKZF8n5TROg",
    "name": "Costco",
    "address": "202 Costco Dr",
    "city": "Pittsburgh",
    "state": "PA",
    "postal_code": "15205",
    "latitude": "40.4588553",
    "longitude": "-80.1655986",
    "stars": "4.5",
    "review_count": "15",
    "is_open": "1",
    "attributes": "{'BusinessAcceptsCreditCards': 'True', 'BusinessParking': \"{'garage': False, 'street': False, 'validated': False, 'lot': True, 'valet': False}\", 'RestaurantsPriceRange2': '2', 'BikeParking': 'True'}",
    "categories": "Shopping, Appliances, Furniture Stores, Wholesale Stores, Drugstores, Home & Garden",
    "hours": "{'Monday': '10:0-20:30', 'Tuesday': '10:0-20:30', 'Wednesday': '10:0-20:30', 'Thursday': '10:0-20:30', 'Friday': '10:0-20:30', 'Saturday': '9:30-18:0', 'Sunday': '10:0-18:0'}"
  },
  {
    "int64_field_0": "84665",
    "business_id": "w7yLvolYg3SmDadIRERixw",
    "name": "My Beauty Recess",
    "address": "8238 Ohio River Blvd",
    "city": "Pittsburgh",
    "state": "PA",
    "postal_code": "15202",
    "latitude": "40.511389",
    "longitude": "-80.099232",
    "stars": "5.0",
    "review_count": "11",
    "is_open": "1",
    "attributes": "{'BikeParking': 'True', 'BusinessParking': \"{'garage': False, 'street': False, 'validated': False, 'lot': True, 'valet': False}\", 'RestaurantsPriceRange2': '2', 'BusinessAcceptsCreditCards': 'True', 'ByAppointmentOnly': 'True', 'WheelchairAccessible': 'False'}",
    "categories": "Day Spas, Eyelash Service, Hair Removal, Cosmetics & Beauty Supply, Beauty & Spas, Local Services, Shopping, Skin Care",
    "hours": "{'Wednesday': '10:0-17:0', 'Thursday': '11:0-20:0', 'Friday': '9:0-16:0', 'Saturday': '10:0-14:0'}"
  },
  {
    "int64_field_0": "84975",
    "business_id": "9Vf__OXZkR7pyp0CbMN0Nw",
    "name": "Kiln N Time",
    "address": "3801 Penn Ave",
    "city": "Pittsburgh",
    "state": "PA",
    "postal_code": "15201",
    "latitude": "40.4647153",
    "longitude": "-79.9614976",
    "stars": "4.5",
    "review_count": "18",
    "is_open": "1",
    "attributes": "{'BusinessParking': \"{'garage': False, 'street': True, 'validated': False, 'lot': False, 'valet': False}\", 'RestaurantsPriceRange2': '2', 'BikeParking': 'True', 'BusinessAcceptsCreditCards': 'True'}",
    "categories": "Arts & Crafts, Party & Event Planning, Event Planning & Services, Shopping, Arts & Entertainment",
    "hours": "{'Tuesday': '12:0-21:0', 'Wednesday': '12:0-21:0', 'Thursday': '12:0-22:0', 'Friday': '12:0-22:0', 'Saturday': '12:0-22:0'}"
  },
  {
    "int64_field_0": "85414",
    "business_id": "zacTq2J8DAj4-ROHM_aRog",
    "name": "Clarissa Boutique",
    "address": "1700 E Carson St",
    "city": "Pittsburgh",
    "state": "PA",
    "postal_code": "15203",
    "latitude": "40.4285625",
    "longitude": "-79.9818218",
    "stars": "4.5",
    "review_count": "13",
    "is_open": "1",
    "attributes": "{'BusinessParking': \"{'garage': False, 'street': True, 'validated': False, 'lot': False, 'valet': False}\", 'ByAppointmentOnly': 'False', 'BikeParking': 'True', 'BusinessAcceptsCreditCards': 'True', 'RestaurantsPriceRange2': '2'}",
    "categories": "Fabric Stores, Shopping, Arts & Crafts, Bridal",
    "hours": "{'Monday': '10:0-17:0', 'Tuesday': '10:0-17:0', 'Wednesday': '10:0-17:0', 'Thursday': '10:0-19:0', 'Friday': '10:0-17:0', 'Saturday': '10:0-16:0'}"
  },
  {
    "int64_field_0": "86167",
    "business_id": "rAtRO7AC8hFiDfWZrWzPdw",
    "name": "Pavement",
    "address": "3629 Butler St",
    "city": "Pittsburgh",
    "state": "PA",
    "postal_code": "15201",
    "latitude": "40.4662419",
    "longitude": "-79.9649976",
    "stars": "4.5",
    "review_count": "31",
    "is_open": "1",
    "attributes": "{'RestaurantsPriceRange2': '3', 'BikeParking': 'True', 'BusinessAcceptsCreditCards': 'True', 'BusinessParking': \"{'garage': False, 'street': True, 'validated': False, 'lot': False, 'valet': False}\"}",
    "categories": "Shoe Stores, Fashion, Women's Clothing, Shopping",
    "hours": "{'Monday': '11:0-18:0', 'Tuesday': '11:0-18:0', 'Wednesday': '11:0-18:0', 'Thursday': '11:0-18:0', 'Friday': '11:0-19:0', 'Saturday': '11:0-18:0', 'Sunday': '11:0-16:0'}"
  },
  {
    "int64_field_0": "87509",
    "business_id": "KMNDr5f2UwjxJbTHnidZ6w",
    "name": "Una Biologicals",
    "address": "4322 Butler St",
    "city": "Pittsburgh",
    "state": "PA",
    "postal_code": "15201",
    "latitude": "40.4711625",
    "longitude": "-79.9598616",
    "stars": "4.5",
    "review_count": "12",
    "is_open": "1",
    "attributes": "{'DogsAllowed': 'False', 'WheelchairAccessible': 'False', 'RestaurantsPriceRange2': '2', 'ByAppointmentOnly': 'False', 'BusinessAcceptsCreditCards': 'True', 'BikeParking': 'True', 'BusinessParking': \"{'garage': False, 'street': True, 'validated': False, 'lot': False, 'valet': False}\"}",
    "categories": "Flowers & Gifts, Beauty & Spas, Shopping, Gift Shops, Cosmetics & Beauty Supply",
    "hours": "{'Monday': '10:0-16:0', 'Tuesday': '10:0-18:0', 'Wednesday': '10:0-18:0', 'Thursday': '10:0-18:0', 'Friday': '10:0-19:0', 'Saturday': '10:0-19:0', 'Sunday': '11:0-16:0'}"
  },
  {
    "int64_field_0": "88094",
    "business_id": "_IClMx5VsJ9_BNpNWGpfIg",
    "name": "Divertido",
    "address": "E-commerce Gift Store",
    "city": "Pittsburgh",
    "state": "PA",
    "postal_code": "15223",
    "latitude": "40.5029699",
    "longitude": "-79.9500477",
    "stars": "4.5",
    "review_count": "10",
    "is_open": "0",
    "attributes": "{'RestaurantsPriceRange2': '2', 'BikeParking': 'False', 'BusinessAcceptsCreditCards': 'True'}",
    "categories": "Shopping, Fashion, Accessories, Gift Shops, Flowers & Gifts, Hobby Shops",
    "hours": null
  },
  {
    "int64_field_0": "88334",
    "business_id": "fLUjK5hx3YvfWo3Zny7xpg",
    "name": "Blooming Dahlia",
    "address": "297 Beverly Rd",
    "city": "Pittsburgh",
    "state": "PA",
    "postal_code": "15216",
    "latitude": "40.3885924",
    "longitude": "-80.0494372",
    "stars": "4.5",
    "review_count": "10",
    "is_open": "1",
    "attributes": "{'BusinessAcceptsCreditCards': 'True', 'RestaurantsPriceRange2': '2', 'BusinessParking': \"{'garage': False, 'street': True, 'validated': False, 'lot': False, 'valet': False}\"}",
    "categories": "Flowers & Gifts, Florists, Shopping",
    "hours": "{'Monday': '9:0-17:0', 'Tuesday': '9:0-17:0', 'Wednesday': '9:0-17:0', 'Thursday': '9:0-17:0', 'Friday': '9:0-17:0', 'Saturday': '10:0-13:0'}"
  },
  {
    "int64_field_0": "89196",
    "business_id": "M7O_XMe0eWPMQyjPe_KY_A",
    "name": "Crafton Shoe Service",
    "address": "29 Walsh Rd",
    "city": "Pittsburgh",
    "state": "PA",
    "postal_code": "15205",
    "latitude": "40.4398278",
    "longitude": "-80.0710501",
    "stars": "4.5",
    "review_count": "13",
    "is_open": "1",
    "attributes": "{'RestaurantsPriceRange2': '1', 'BusinessAcceptsCreditCards': 'True', 'BusinessParking': \"{'garage': False, 'street': False, 'validated': False, 'lot': True, 'valet': False}\"}",
    "categories": "Shoe Repair, Shoe Stores, Fashion, Local Services, Shopping",
    "hours": null
  },
  {
    "int64_field_0": "89560",
    "business_id": "Jg4iMxNVtryk-Y7BbfebMQ",
    "name": "Juke Records",
    "address": "4526 Liberty Ave",
    "city": "Pittsburgh",
    "state": "PA",
    "postal_code": "15224",
    "latitude": "40.4624918",
    "longitude": "-79.9511623",
    "stars": "4.5",
    "review_count": "21",
    "is_open": "1",
    "attributes": "{'BusinessAcceptsCreditCards': 'True', 'BikeParking': 'True', 'BusinessParking': \"{'garage': False, 'street': False, 'validated': False, 'lot': False, 'valet': False}\", 'RestaurantsPriceRange2': '2'}",
    "categories": "Newspapers & Magazines, Shopping, Computers, Music & DVDs, Vinyl Records, Books, Mags, Music & Video",
    "hours": "{'Tuesday': '10:0-18:0', 'Wednesday': '10:0-18:0', 'Thursday': '10:0-18:0', 'Friday': '10:0-19:0', 'Saturday': '10:0-19:0', 'Sunday': '12:0-17:0'}"
  },
  {
    "int64_field_0": "89626",
    "business_id": "F_WzuaMXsZ88TQI2AQVzBw",
    "name": "S & S Candy & Cigar Co",
    "address": "2025 E Carson St",
    "city": "Pittsburgh",
    "state": "PA",
    "postal_code": "15203",
    "latitude": "40.428778",
    "longitude": "-79.9764194",
    "stars": "4.5",
    "review_count": "11",
    "is_open": "1",
    "attributes": "{'BusinessParking': \"{'garage': False, 'street': True, 'validated': False, 'lot': False, 'valet': False}\", 'BusinessAcceptsCreditCards': 'True', 'RestaurantsPriceRange2': '1', 'RestaurantsTakeOut': 'True', 'BikeParking': 'True'}",
    "categories": "Specialty Food, Shopping, Candy Stores, Tobacco Shops, Food",
    "hours": "{'Monday': '9:0-17:30', 'Tuesday': '9:0-17:30', 'Wednesday': '9:0-17:30', 'Thursday': '9:0-17:30', 'Friday': '9:0-17:30', 'Saturday': '9:0-17:30'}"
  },
  {
    "int64_field_0": "95879",
    "business_id": "O1lmP2PEN8PRX7ceWIf2PA",
    "name": "Buffalo Exchange",
    "address": "1214 E. Carson St.",
    "city": "Pittsburgh",
    "state": "PA",
    "postal_code": "15203",
    "latitude": "40.428591",
    "longitude": "-79.9857224",
    "stars": "4.5",
    "review_count": "14",
    "is_open": "1",
    "attributes": "{'BusinessParking': \"{'garage': False, 'street': True, 'validated': False, 'lot': False, 'valet': False}\", 'BusinessAcceptsCreditCards': 'True', 'BikeParking': 'True', 'RestaurantsPriceRange2': '2'}",
    "categories": "Used, Vintage & Consignment, Fashion, Shopping, Women's Clothing, Men's Clothing, Thrift Stores",
    "hours": "{'Monday': '0:0-0:0', 'Tuesday': '11:0-19:0', 'Wednesday': '11:0-19:0', 'Thursday': '11:0-19:0', 'Friday': '11:0-19:0', 'Saturday': '11:0-19:0', 'Sunday': '12:0-18:0'}"
  },
  {
    "int64_field_0": "96058",
    "business_id": "L9w6yeIxEtuMP0O7YWKWtA",
    "name": "Von Walter & Funk",
    "address": "5210 Butler St",
    "city": "Pittsburgh",
    "state": "PA",
    "postal_code": "15201",
    "latitude": "40.4806898236",
    "longitude": "-79.9541436884",
    "stars": "5.0",
    "review_count": "10",
    "is_open": "1",
    "attributes": "{'BusinessAcceptsCreditCards': 'True', 'ByAppointmentOnly': 'False', 'BikeParking': 'True', 'RestaurantsPriceRange2': '3'}",
    "categories": "Antiques, Arts & Crafts, Cards & Stationery, Flowers & Gifts, Event Planning & Services, Shopping, Balloon Services, Jewelry, Gift Shops, Home & Garden, Home Decor",
    "hours": "{'Tuesday': '11:0-19:0', 'Wednesday': '11:0-19:0', 'Thursday': '11:0-19:0', 'Friday': '11:0-19:0', 'Saturday': '11:0-18:0', 'Sunday': '11:0-17:0'}"
  },
  {
    "int64_field_0": "98483",
    "business_id": "-yuNBcDIoOzCcS4GWU_o1A",
    "name": "The Gilded Girl",
    "address": "5104 Butler St",
    "city": "Pittsburgh",
    "state": "PA",
    "postal_code": "15201",
    "latitude": "40.4784388",
    "longitude": "-79.9553131",
    "stars": "4.5",
    "review_count": "13",
    "is_open": "1",
    "attributes": "{'BusinessAcceptsCreditCards': 'True', 'ByAppointmentOnly': 'False', 'BikeParking': 'False', 'RestaurantsPriceRange2': '2', 'BusinessParking': 'None'}",
    "categories": "Specialty Schools, Makeup Artists, Beauty & Spas, Shopping, Cosmetics & Beauty Supply, Education",
    "hours": "{'Wednesday': '11:0-18:0', 'Thursday': '11:0-18:0', 'Friday': '11:0-18:0', 'Saturday': '11:0-18:0', 'Sunday': '12:0-17:0'}"
  },
  {
    "int64_field_0": "99094",
    "business_id": "c19Me4yU09FI7m2QzX-Adw",
    "name": "Bloom Organic Skincare Parlor",
    "address": "5220 Butler St",
    "city": "Pittsburgh",
    "state": "PA",
    "postal_code": "15201",
    "latitude": "40.480848",
    "longitude": "-79.953774",
    "stars": "5.0",
    "review_count": "26",
    "is_open": "0",
    "attributes": "{'BusinessParking': \"{'garage': False, 'street': True, 'validated': False, 'lot': True, 'valet': False}\", 'RestaurantsPriceRange2': '2', 'BusinessAcceptsCreditCards': 'True', 'ByAppointmentOnly': 'True'}",
    "categories": "Shopping, Day Spas, Skin Care, Beauty & Spas, Cosmetics & Beauty Supply",
    "hours": "{'Monday': '9:0-20:0', 'Tuesday': '9:0-20:0', 'Wednesday': '9:0-20:0', 'Thursday': '9:0-20:0', 'Friday': '9:0-17:0', 'Saturday': '9:0-16:0', 'Sunday': '9:0-16:0'}"
  },
  {
    "int64_field_0": "101439",
    "business_id": "SHGZcoeW7LB_nLf74QjwFg",
    "name": "Kraynick's Bike Shop",
    "address": "5003 Penn Ave",
    "city": "Pittsburgh",
    "state": "PA",
    "postal_code": "15224",
    "latitude": "40.4652961",
    "longitude": "-79.9438063",
    "stars": "5.0",
    "review_count": "28",
    "is_open": "1",
    "attributes": "{'BusinessParking': \"{'garage': False, 'street': True, 'validated': False, 'lot': False, 'valet': False}\", 'RestaurantsPriceRange2': '1', 'BikeParking': 'True', 'BusinessAcceptsCreditCards': 'False'}",
    "categories": "Sporting Goods, Local Services, Bikes, Bike Repair/Maintenance, Shopping",
    "hours": "{'Monday': '12:0-18:0', 'Tuesday': '11:30-18:0', 'Wednesday': '11:30-18:0', 'Thursday': '11:30-18:0', 'Friday': '11:30-18:0', 'Saturday': '11:30-16:0'}"
  },
  {
    "int64_field_0": "101584",
    "business_id": "1GaP0tW-3gA3DM2WDoD7aw",
    "name": "Heidioptics",
    "address": "223 4th Ave",
    "city": "Pittsburgh",
    "state": "PA",
    "postal_code": "15222",
    "latitude": "40.4398969",
    "longitude": "-80.0021785",
    "stars": "5.0",
    "review_count": "13",
    "is_open": "1",
    "attributes": "{'BusinessParking': \"{'garage': False, 'street': True, 'validated': False, 'lot': False, 'valet': False}\", 'BusinessAcceptsCreditCards': 'True', 'RestaurantsPriceRange2': '3', 'ByAppointmentOnly': 'False'}",
    "categories": "Shopping, Optometrists, Health & Medical, Eyewear & Opticians",
    "hours": null
  },
  {
    "int64_field_0": "102791",
    "business_id": "zuz4w_uDWT5xC0EXOquhHQ",
    "name": "Harold's Flower Shop",
    "address": "700 5th Ave",
    "city": "Pittsburgh",
    "state": "PA",
    "postal_code": "15219",
    "latitude": "40.4405269",
    "longitude": "-79.9940152",
    "stars": "4.5",
    "review_count": "12",
    "is_open": "1",
    "attributes": "{'BusinessAcceptsCreditCards': 'True', 'RestaurantsDelivery': 'True', 'RestaurantsPriceRange2': '2'}",
    "categories": "Flowers & Gifts, Food, Specialty Food, Fruits & Veggies, Florists, Shopping, Funeral Services & Cemeteries, Local Services, Gift Shops",
    "hours": "{'Monday': '8:0-17:0', 'Tuesday': '8:0-17:0', 'Wednesday': '8:0-17:0', 'Thursday': '8:0-17:0', 'Friday': '8:0-17:0', 'Saturday': '8:0-15:0'}"
  },
  {
    "int64_field_0": "104542",
    "business_id": "StAOv_9vi4r9T3MqE5ySLw",
    "name": "The Cigar Den",
    "address": "5268 Butler St",
    "city": "Pittsburgh",
    "state": "PA",
    "postal_code": "15201",
    "latitude": "40.481878",
    "longitude": "-79.952564",
    "stars": "4.5",
    "review_count": "28",
    "is_open": "0",
    "attributes": "{'BusinessAcceptsBitcoin': 'False', 'BikeParking': 'True', 'BusinessParking': \"{'garage': False, 'street': True, 'validated': False, 'lot': False, 'valet': False}\", 'BusinessAcceptsCreditCards': 'True', 'RestaurantsPriceRange2': '2'}",
    "categories": "Shopping, Tobacco Shops",
    "hours": "{'Monday': '14:0-22:0', 'Tuesday': '14:0-22:0', 'Wednesday': '14:0-22:0', 'Thursday': '14:0-22:0', 'Friday': '14:0-23:0', 'Saturday': '14:0-23:0'}"
  },
  {
    "int64_field_0": "104942",
    "business_id": "q9FifZsp6jno13xnby1XnA",
    "name": "Clothes Minded",
    "address": "4740 Liberty Ave",
    "city": "Pittsburgh",
    "state": "PA",
    "postal_code": "15224",
    "latitude": "40.461206",
    "longitude": "-79.948711",
    "stars": "4.5",
    "review_count": "36",
    "is_open": "1",
    "attributes": "{'BusinessAcceptsCreditCards': 'True', 'BusinessParking': \"{'garage': False, 'street': True, 'validated': False, 'lot': False, 'valet': False}\", 'RestaurantsPriceRange2': '2', 'BikeParking': 'True'}",
    "categories": "Shopping, Fashion, Used, Vintage & Consignment, Men's Clothing",
    "hours": "{'Monday': '12:0-20:0', 'Tuesday': '12:0-20:0', 'Wednesday': '12:0-20:0', 'Thursday': '12:0-20:0', 'Friday': '12:0-20:0', 'Saturday': '12:0-20:0', 'Sunday': '12:0-17:0'}"
  },
  {
    "int64_field_0": "105398",
    "business_id": "uN_f8SF2SPJn1UJ3P5pUOQ",
    "name": "Hepatica",
    "address": "1119 S Braddock Ave",
    "city": "Pittsburgh",
    "state": "PA",
    "postal_code": "15218",
    "latitude": "40.4323229",
    "longitude": "-79.8933753",
    "stars": "4.5",
    "review_count": "11",
    "is_open": "1",
    "attributes": "{'RestaurantsDelivery': 'True', 'BusinessAcceptsCreditCards': 'True', 'RestaurantsPriceRange2': '3'}",
    "categories": "Flowers & Gifts, Florists, Shopping",
    "hours": "{'Monday': '9:0-17:0', 'Tuesday': '9:0-17:0', 'Wednesday': '9:0-17:0', 'Thursday': '9:0-17:0', 'Friday': '9:0-17:0', 'Saturday': '9:0-17:0'}"
  },
  {
    "int64_field_0": "108819",
    "business_id": "nKtzNATLJ07ThHnvfu6GfQ",
    "name": "McCauley Celin Eyecare Associates",
    "address": "956 Perry Hwy",
    "city": "Pittsburgh",
    "state": "PA",
    "postal_code": "15237",
    "latitude": "40.53647",
    "longitude": "-80.035902",
    "stars": "5.0",
    "review_count": "10",
    "is_open": "1",
    "attributes": "{'BikeParking': 'True', 'RestaurantsPriceRange2': '2', 'ByAppointmentOnly': 'True', 'BusinessAcceptsCreditCards': 'True', 'BusinessParking': \"{'garage': False, 'street': False, 'validated': False, 'lot': True, 'valet': False}\", 'AcceptsInsurance': 'True'}",
    "categories": "Optometrists, Health & Medical, Shopping, Eyewear & Opticians",
    "hours": "{'Monday': '0:0-0:0', 'Tuesday': '9:0-16:30', 'Wednesday': '9:0-16:30', 'Thursday': '9:0-19:30', 'Friday': '9:0-16:30', 'Saturday': '8:0-11:30'}"
  },
  {
    "int64_field_0": "109079",
    "business_id": "AaXrVLqmI3cnDcN_8GWWLw",
    "name": "Steel City Vapors Express",
    "address": "2208 Murray Ave",
    "city": "Pittsburgh",
    "state": "PA",
    "postal_code": "15217",
    "latitude": "40.4320547",
    "longitude": "-79.9233034",
    "stars": "4.5",
    "review_count": "12",
    "is_open": "1",
    "attributes": "{'BusinessAcceptsBitcoin': 'False', 'BusinessAcceptsCreditCards': 'True', 'BusinessParking': \"{'garage': False, 'street': True, 'validated': False, 'lot': False, 'valet': False}\", 'RestaurantsPriceRange2': '2', 'BikeParking': 'True'}",
    "categories": "Shopping, Vape Shops, Tobacco Shops, Electronics",
    "hours": "{'Monday': '10:0-21:0', 'Tuesday': '10:0-21:0', 'Wednesday': '10:0-21:0', 'Thursday': '10:0-21:0', 'Friday': '10:0-21:0', 'Saturday': '10:0-21:0', 'Sunday': '10:0-17:0'}"
  },
  {
    "int64_field_0": "113032",
    "business_id": "KIyAce9_U9NUeUVQn8iLSA",
    "name": "Handmade Arcade",
    "address": "1000 Fort Duquesne Blvd",
    "city": "Pittsburgh",
    "state": "PA",
    "postal_code": "15222",
    "latitude": "40.445559043",
    "longitude": "-79.9978065491",
    "stars": "4.5",
    "review_count": "19",
    "is_open": "1",
    "attributes": "{'RestaurantsPriceRange2': '2', 'BusinessAcceptsCreditCards': 'True', 'BusinessAcceptsBitcoin': 'False', 'BusinessParking': \"{'garage': True, 'street': False, 'validated': False, 'lot': False, 'valet': False}\", 'BikeParking': 'True'}",
    "categories": "Arts & Crafts, Shopping",
    "hours": "{'Saturday': '11:0-19:0'}"
  },
  {
    "int64_field_0": "113166",
    "business_id": "ph0xYDrzfnRH3KrP-5_TYQ",
    "name": "Gidas Flowers",
    "address": "3719 Forbes Ave",
    "city": "Pittsburgh",
    "state": "PA",
    "postal_code": "15213",
    "latitude": "40.4414403",
    "longitude": "-79.9572865",
    "stars": "4.5",
    "review_count": "18",
    "is_open": "1",
    "attributes": "{'BusinessParking': \"{'garage': False, 'street': True, 'validated': False, 'lot': False, 'valet': False}\", 'BusinessAcceptsCreditCards': 'True', 'RestaurantsTakeOut': 'False', 'RestaurantsPriceRange2': '2', 'BikeParking': 'True', 'RestaurantsDelivery': 'True'}",
    "categories": "Home & Garden, Chocolatiers & Shops, Shopping, Food, Floral Designers, Event Planning & Services, Nurseries & Gardening, Florists, Specialty Food, Flowers & Gifts",
    "hours": "{'Monday': '7:30-17:0', 'Tuesday': '7:30-17:0', 'Wednesday': '7:30-17:0', 'Thursday': '7:30-17:0', 'Friday': '7:30-17:0', 'Saturday': '9:0-16:0'}"
  },
  {
    "int64_field_0": "114989",
    "business_id": "JXUkn_7Pd2MrEkC8559W8g",
    "name": "Thick Bikes",
    "address": "62 S 15th St",
    "city": "Pittsburgh",
    "state": "PA",
    "postal_code": "15203",
    "latitude": "40.4291873",
    "longitude": "-79.9836483",
    "stars": "4.5",
    "review_count": "49",
    "is_open": "1",
    "attributes": "{'RestaurantsPriceRange2': '2', 'GoodForKids': 'True', 'BikeParking': 'True', 'BusinessAcceptsBitcoin': 'False', 'BusinessAcceptsCreditCards': 'True', 'BusinessParking': \"{'garage': False, 'street': True, 'validated': False, 'lot': True, 'valet': False}\"}",
    "categories": "Shopping, Active Life, Bike Rentals, Mountain Biking, Bikes, Bike Repair/Maintenance, Sporting Goods, Local Services",
    "hours": "{'Tuesday': '11:0-19:0', 'Wednesday': '11:0-19:0', 'Thursday': '11:0-19:0', 'Friday': '11:0-19:0', 'Saturday': '9:0-17:0'}"
  },
  {
    "int64_field_0": "116785",
    "business_id": "WPRLdtddBtD-jfVYQFvOhQ",
    "name": "Giant Eagle Express",
    "address": "2611 Freeport Rd",
    "city": "Pittsburgh",
    "state": "PA",
    "postal_code": "15238",
    "latitude": "40.5379144",
    "longitude": "-79.8388218",
    "stars": "4.5",
    "review_count": "11",
    "is_open": "1",
    "attributes": "{'BusinessParking': \"{'garage': False, 'street': False, 'validated': False, 'lot': True, 'valet': False}\", 'BusinessAcceptsCreditCards': 'True', 'BikeParking': 'False', 'RestaurantsPriceRange2': '2'}",
    "categories": "Drugstores, Shopping",
    "hours": null
  },
  {
    "int64_field_0": "117147",
    "business_id": "bgcnrM6fbsWIR8amscTQNA",
    "name": "Beyond Bedtime Books",
    "address": "1453 Potomac Ave",
    "city": "Pittsburgh",
    "state": "PA",
    "postal_code": "15216",
    "latitude": "40.3963449",
    "longitude": "-80.0353418",
    "stars": "5.0",
    "review_count": "19",
    "is_open": "1",
    "attributes": "{'BikeParking': 'True', 'BusinessAcceptsCreditCards': 'True', 'BusinessParking': \"{'garage': False, 'street': True, 'validated': False, 'lot': False, 'valet': False}\", 'RestaurantsPriceRange2': '1'}",
    "categories": "Bookstores, Books, Mags, Music & Video, Shopping",
    "hours": "{'Monday': '10:0-16:0', 'Tuesday': '10:0-16:0', 'Wednesday': '10:0-16:0', 'Thursday': '10:0-16:0', 'Friday': '10:0-16:0', 'Saturday': '10:0-16:0', 'Sunday': '10:0-14:0'}"
  },
  {
    "int64_field_0": "118063",
    "business_id": "1Z1SH6kLoeJVwkWY1BXvyQ",
    "name": "Lush Cosmetics",
    "address": "1000 Ross Park Mall Dr",
    "city": "Pittsburgh",
    "state": "PA",
    "postal_code": "15237",
    "latitude": "40.5433537605",
    "longitude": "-80.0076852777",
    "stars": "4.5",
    "review_count": "11",
    "is_open": "1",
    "attributes": "{'BusinessAcceptsCreditCards': 'True', 'BusinessParking': \"{'garage': False, 'street': False, 'validated': False, 'lot': True, 'valet': False}\", 'BikeParking': 'True', 'ByAppointmentOnly': 'False', 'RestaurantsPriceRange2': '2'}",
    "categories": "Shopping, Cosmetics & Beauty Supply, Beauty & Spas",
    "hours": "{'Monday': '10:0-21:0', 'Tuesday': '10:0-21:0', 'Wednesday': '10:0-21:0', 'Thursday': '10:0-21:0', 'Friday': '10:0-21:0', 'Saturday': '10:0-21:0', 'Sunday': '11:0-18:0'}"
  },
  {
    "int64_field_0": "118710",
    "business_id": "g2gd3IykjgGFjrT9NJwbpA",
    "name": "Bloomfield Saturday Market",
    "address": "5050 Liberty Ave",
    "city": "Pittsburgh",
    "state": "PA",
    "postal_code": "15224",
    "latitude": "40.459027",
    "longitude": "-79.9442297",
    "stars": "4.5",
    "review_count": "10",
    "is_open": "1",
    "attributes": "{'WheelchairAccessible': 'True', 'RestaurantsTakeOut': 'True', 'BikeParking': 'True', 'Caters': 'False', 'BusinessParking': \"{'garage': False, 'street': True, 'validated': False, 'lot': False, 'valet': False}\", 'BusinessAcceptsBitcoin': 'False', 'BusinessAcceptsCreditCards': 'True', 'RestaurantsPriceRange2': '2'}",
    "categories": "Food, Farmers Market, Shopping, Festivals, Arts & Entertainment",
    "hours": "{'Saturday': '11:0-14:0'}"
  },
  {
    "int64_field_0": "120395",
    "business_id": "-7bvsSGKnY6O-JmSWc5V6g",
    "name": "Nine Stories",
    "address": "5400 Butler St",
    "city": "Pittsburgh",
    "state": "PA",
    "postal_code": "15201",
    "latitude": "40.4829304602",
    "longitude": "-79.9509279054",
    "stars": "4.5",
    "review_count": "12",
    "is_open": "1",
    "attributes": "{'BikeParking': 'True', 'BusinessAcceptsCreditCards': 'True', 'RestaurantsPriceRange2': '2', 'BusinessParking': \"{'garage': False, 'street': False, 'validated': False, 'lot': False, 'valet': False}\"}",
    "categories": "Bookstores, Books, Mags, Music & Video, Shopping",
    "hours": "{'Tuesday': '11:0-19:0', 'Wednesday': '11:0-19:0', 'Thursday': '11:0-19:0', 'Friday': '11:0-19:0', 'Saturday': '11:0-19:0', 'Sunday': '10:0-17:0'}"
  },
  {
    "int64_field_0": "121339",
    "business_id": "idM0hDe_Pp2IeYgH0DIIBw",
    "name": "The Big Idea Bookstore and Cafe",
    "address": "4812 Liberty Ave",
    "city": "Pittsburgh",
    "state": "PA",
    "postal_code": "15224",
    "latitude": "40.4601392",
    "longitude": "-79.9467527",
    "stars": "4.5",
    "review_count": "22",
    "is_open": "1",
    "attributes": "{'NoiseLevel': \"u'quiet'\", 'RestaurantsPriceRange2': '1', 'HasTV': 'False', 'BusinessParking': \"{'garage': False, 'street': True, 'validated': False, 'lot': False, 'valet': False}\", 'Ambience': \"{'romantic': False, 'intimate': False, 'classy': False, 'hipster': False, 'divey': False, 'touristy': False, 'trendy': False, 'upscale': False, 'casual': False}\", 'RestaurantsTakeOut': 'True', 'BikeParking': 'True', 'RestaurantsGoodForGroups': 'False', 'BusinessAcceptsCreditCards': 'True', 'OutdoorSeating': 'False', 'RestaurantsAttire': \"u'casual'\", 'WiFi': \"u'free'\", 'RestaurantsDelivery': 'False', 'GoodForKids': 'True', 'RestaurantsReservations': 'False'}",
    "categories": "Food, Restaurants, Cafes, Coffee & Tea, Bookstores, Shopping, Books, Mags, Music & Video",
    "hours": "{'Monday': '11:0-21:0', 'Tuesday': '11:0-17:0', 'Wednesday': '11:0-21:0', 'Thursday': '11:0-21:0', 'Friday': '11:0-21:0', 'Saturday': '11:0-19:0', 'Sunday': '11:0-19:0'}"
  },
  {
    "int64_field_0": "122356",
    "business_id": "NbJLcLffxFvYTD7MfgCXOg",
    "name": "Mint Salon & Gallery",
    "address": "238 Shady Ave",
    "city": "Pittsburgh",
    "state": "PA",
    "postal_code": "15206",
    "latitude": "40.458231332",
    "longitude": "-79.9223222306",
    "stars": "4.5",
    "review_count": "43",
    "is_open": "1",
    "attributes": "{'RestaurantsPriceRange2': '2', 'BusinessAcceptsCreditCards': 'True', 'GoodForKids': 'True', 'BusinessParking': \"{'garage': False, 'street': True, 'validated': False, 'lot': False, 'valet': False}\", 'ByAppointmentOnly': 'False', 'BusinessAcceptsBitcoin': 'False', 'WheelchairAccessible': 'True', 'BikeParking': 'True'}",
    "categories": "Hair Salons, Beauty & Spas, Arts & Entertainment, Art Galleries, Shopping, Waxing, Hair Removal",
    "hours": "{'Tuesday': '10:0-20:0', 'Wednesday': '10:0-20:0', 'Thursday': '10:0-20:0', 'Friday': '9:0-16:0', 'Saturday': '9:0-16:0'}"
  },
  {
    "int64_field_0": "123207",
    "business_id": "BKpmbZinihQPZra5SWks3A",
    "name": "Allegheny Smokeworks",
    "address": "217 Freeport Rd",
    "city": "Pittsburgh",
    "state": "PA",
    "postal_code": "15238",
    "latitude": "40.492507",
    "longitude": "-79.864475",
    "stars": "4.5",
    "review_count": "11",
    "is_open": "1",
    "attributes": "{'BusinessAcceptsBitcoin': 'False', 'BusinessAcceptsCreditCards': 'True', 'BusinessParking': \"{'garage': False, 'street': True, 'validated': False, 'lot': True, 'valet': False}\", 'RestaurantsPriceRange2': '2', 'BikeParking': 'True'}",
    "categories": "Shopping, Tobacco Shops",
    "hours": "{'Monday': '0:0-0:0', 'Tuesday': '10:0-20:0', 'Wednesday': '10:0-20:0', 'Thursday': '10:0-20:0', 'Friday': '10:0-20:0', 'Saturday': '10:0-15:0'}"
  },
  {
    "int64_field_0": "124579",
    "business_id": "qFy8R5NseclYmIFbMpGbuQ",
    "name": "Bloom Cigar Company",
    "address": "54 S 12th St",
    "city": "Pittsburgh",
    "state": "PA",
    "postal_code": "15203",
    "latitude": "40.4289912",
    "longitude": "-79.9866",
    "stars": "4.5",
    "review_count": "14",
    "is_open": "1",
    "attributes": "{'BikeParking': 'True', 'RestaurantsPriceRange2': '2', 'BusinessParking': \"{'garage': False, 'street': True, 'validated': False, 'lot': False, 'valet': False}\", 'BusinessAcceptsCreditCards': 'True'}",
    "categories": "Shopping, Tobacco Shops",
    "hours": "{'Monday': '9:30-18:0', 'Tuesday': '9:30-18:0', 'Wednesday': '9:30-18:0', 'Thursday': '9:30-18:0', 'Friday': '9:30-19:0', 'Saturday': '12:0-19:0'}"
  },
  {
    "int64_field_0": "127310",
    "business_id": "LMJW_BncFhCAu9GcZ0JIUg",
    "name": "Paint Monkey",
    "address": "100 43rd St, Ste 212",
    "city": "Pittsburgh",
    "state": "PA",
    "postal_code": "15201",
    "latitude": "40.4729243",
    "longitude": "-79.9639465",
    "stars": "5.0",
    "review_count": "39",
    "is_open": "1",
    "attributes": "{'BusinessParking': \"{'garage': False, 'street': True, 'validated': False, 'lot': False, 'valet': False}\", 'RestaurantsPriceRange2': '2', 'GoodForKids': 'True', 'BikeParking': 'True', 'BusinessAcceptsCreditCards': 'True', 'BusinessAcceptsBitcoin': 'False'}",
    "categories": "Art Classes, Venues & Event Spaces, Paint & Sip, Event Planning & Services, Education, Arts & Entertainment, Shopping, Art Galleries, Arts & Crafts, Party & Event Planning",
    "hours": "{'Monday': '0:0-0:0', 'Wednesday': '18:0-22:0', 'Thursday': '18:0-22:0', 'Friday': '18:0-22:0', 'Saturday': '11:0-22:0', 'Sunday': '12:0-18:0'}"
  },
  {
    "int64_field_0": "127312",
    "business_id": "3clNGTYOHTnDUZPUnihL3g",
    "name": "SIX16 Body Piercing",
    "address": "4417 Butler St",
    "city": "Pittsburgh",
    "state": "PA",
    "postal_code": "15201",
    "latitude": "40.472074",
    "longitude": "-79.9596771",
    "stars": "4.5",
    "review_count": "49",
    "is_open": "1",
    "attributes": "{'BusinessAcceptsCreditCards': 'True', 'RestaurantsPriceRange2': '2', 'WheelchairAccessible': 'True', 'ByAppointmentOnly': 'False', 'BusinessParking': \"{'garage': False, 'street': True, 'validated': False, 'lot': False, 'valet': False}\", 'BikeParking': 'True'}",
    "categories": "Jewelry, Piercing, Beauty & Spas, Shopping",
    "hours": "{'Tuesday': '12:30-20:0', 'Wednesday': '12:30-20:0', 'Thursday': '12:30-20:0', 'Friday': '12:30-20:0', 'Saturday': '12:30-20:0', 'Sunday': '12:30-16:30'}"
  },
  {
    "int64_field_0": "129029",
    "business_id": "jCzNmrVS5yS3t-z8c9z_LQ",
    "name": "Iron City Bicycles",
    "address": "3822 Butler St",
    "city": "Pittsburgh",
    "state": "PA",
    "postal_code": "15213",
    "latitude": "40.4671488",
    "longitude": "-79.9638809",
    "stars": "4.5",
    "review_count": "15",
    "is_open": "1",
    "attributes": "{'BusinessAcceptsCreditCards': 'True', 'RestaurantsPriceRange2': '2', 'BikeParking': 'True', 'BusinessParking': \"{'garage': False, 'street': True, 'validated': False, 'lot': False, 'valet': False}\"}",
    "categories": "Shopping, Bikes, Sporting Goods",
    "hours": "{'Tuesday': '11:0-19:0', 'Wednesday': '11:0-19:0', 'Thursday': '11:0-19:0', 'Friday': '11:0-19:0', 'Saturday': '11:0-17:0', 'Sunday': '12:0-16:0'}"
  },
  {
    "int64_field_0": "130559",
    "business_id": "aEsQU7YmlhisVHTSLadeDQ",
    "name": "Phantom of the Attic - Oakland",
    "address": "411 S Craig St, Second Floor",
    "city": "Pittsburgh",
    "state": "PA",
    "postal_code": "15213",
    "latitude": "40.4448788",
    "longitude": "-79.9484106",
    "stars": "5.0",
    "review_count": "20",
    "is_open": "1",
    "attributes": "{'BikeParking': 'True', 'RestaurantsPriceRange2': '2', 'BusinessParking': \"{'garage': False, 'street': True, 'validated': False, 'lot': False, 'valet': False}\", 'BusinessAcceptsCreditCards': 'True'}",
    "categories": "Comic Books, Books, Mags, Music & Video, Shopping, Hobby Shops, Tabletop Games",
    "hours": "{'Monday': '0:0-0:0', 'Tuesday': '11:0-19:0', 'Wednesday': '11:0-19:0', 'Thursday': '11:0-19:0', 'Friday': '11:0-19:0', 'Saturday': '10:0-18:0', 'Sunday': '12:0-17:0'}"
  },
  {
    "int64_field_0": "134265",
    "business_id": "al2hUXHYPUyWndls5azong",
    "name": "Pittsburgh Beauty Bar",
    "address": "2429 E Carson St, Ste 101",
    "city": "Pittsburgh",
    "state": "PA",
    "postal_code": "15203",
    "latitude": "40.4281467777",
    "longitude": "-79.9704805162",
    "stars": "4.5",
    "review_count": "96",
    "is_open": "1",
    "attributes": "{'BusinessParking': \"{'garage': False, 'street': True, 'validated': False, 'lot': False, 'valet': False}\", 'WheelchairAccessible': 'False', 'BikeParking': 'True', 'ByAppointmentOnly': 'False', 'DogsAllowed': 'False', 'RestaurantsPriceRange2': '2', 'BusinessAcceptsCreditCards': 'True', 'BusinessAcceptsBitcoin': 'False', 'Smoking': \"'no'\"}",
    "categories": "Skin Care, Shopping, Cosmetics & Beauty Supply, Threading Services, Hair Removal, Eyelash Service, Waxing, Beauty & Spas, Day Spas, Nail Salons",
    "hours": "{'Monday': '0:0-0:0', 'Tuesday': '9:0-20:0', 'Wednesday': '9:0-20:0', 'Thursday': '9:0-20:0', 'Friday': '9:0-20:0', 'Saturday': '9:0-17:0'}"
  },
  {
    "int64_field_0": "135483",
    "business_id": "JrEEn-KvqX_B2KM3FF1FDg",
    "name": "N Stuff Music",
    "address": "468 Freeport Rd",
    "city": "Pittsburgh",
    "state": "PA",
    "postal_code": "15238",
    "latitude": "40.4958388",
    "longitude": "-79.8574779",
    "stars": "5.0",
    "review_count": "17",
    "is_open": "1",
    "attributes": "{'BusinessParking': \"{'garage': False, 'street': True, 'validated': False, 'lot': False, 'valet': False}\", 'BikeParking': 'True', 'BusinessAcceptsCreditCards': 'True', 'RestaurantsPriceRange2': '2'}",
    "categories": "Musical Instrument Services, Musical Instruments & Teachers, Shopping, Local Services, Electronics, Guitar Stores",
    "hours": "{'Monday': '10:0-20:0', 'Tuesday': '10:0-20:0', 'Thursday': '10:0-20:0', 'Friday': '10:0-17:30', 'Saturday': '10:0-17:30'}"
  },
  {
    "int64_field_0": "135695",
    "business_id": "eOpQ5lxPjsPQtooSYtJIZQ",
    "name": "Chapon's Greenhouse & Supply",
    "address": "4846 Streets Run Rd",
    "city": "Pittsburgh",
    "state": "PA",
    "postal_code": "15236",
    "latitude": "40.37223",
    "longitude": "-79.943578",
    "stars": "4.5",
    "review_count": "10",
    "is_open": "1",
    "attributes": "{'BusinessParking': \"{'garage': False, 'street': False, 'validated': False, 'lot': True, 'valet': False}\", 'BusinessAcceptsCreditCards': 'True', 'BikeParking': 'True', 'RestaurantsPriceRange2': '2'}",
    "categories": "Home & Garden, Nurseries & Gardening, Shopping",
    "hours": "{'Monday': '8:0-18:0', 'Tuesday': '8:0-18:0', 'Wednesday': '8:0-18:0', 'Thursday': '8:0-18:0', 'Friday': '8:0-18:0', 'Saturday': '8:0-17:0', 'Sunday': '9:0-17:0'}"
  },
  {
    "int64_field_0": "139598",
    "business_id": "ZHoTQbkhGcLw9Oq_r-TiZQ",
    "name": "Randyland",
    "address": "1501 Arch St",
    "city": "Pittsburgh",
    "state": "PA",
    "postal_code": "15212",
    "latitude": "40.4580766",
    "longitude": "-80.0098045",
    "stars": "5.0",
    "review_count": "81",
    "is_open": "1",
    "attributes": "{'GoodForKids': 'True', 'BusinessAcceptsBitcoin': 'False', 'BikeParking': 'True', 'RestaurantsPriceRange2': '1', 'BusinessAcceptsCreditCards': 'False', 'BusinessParking': \"{'garage': False, 'street': True, 'validated': False, 'lot': False, 'valet': False}\", 'ByAppointmentOnly': 'False'}",
    "categories": "Art Galleries, Shopping, Arts & Entertainment, Local Flavor, Museums",
    "hours": "{'Monday': '10:0-19:0', 'Tuesday': '10:0-19:0', 'Wednesday': '10:0-19:0', 'Thursday': '10:0-19:0', 'Friday': '10:0-19:0', 'Saturday': '10:0-19:0', 'Sunday': '10:0-19:0'}"
  },
  {
    "int64_field_0": "142295",
    "business_id": "2EQxLvCxWtmTa3GadTSuTA",
    "name": "Journeys of Life",
    "address": "810 Bellefonte St",
    "city": "Pittsburgh",
    "state": "PA",
    "postal_code": "15232",
    "latitude": "40.4508023",
    "longitude": "-79.93376",
    "stars": "4.5",
    "review_count": "12",
    "is_open": "1",
    "attributes": "{'BikeParking': 'True', 'RestaurantsPriceRange2': '2', 'BusinessAcceptsCreditCards': 'True', 'BusinessParking': \"{'garage': True, 'street': True, 'validated': False, 'lot': False, 'valet': False}\"}",
    "categories": "Bookstores, Books, Mags, Music & Video, Flowers & Gifts, Gift Shops, Shopping",
    "hours": "{'Monday': '10:0-17:30', 'Tuesday': '10:0-17:30', 'Wednesday': '10:0-20:0', 'Thursday': '10:0-17:30', 'Friday': '10:0-17:30', 'Saturday': '10:0-17:30', 'Sunday': '12:0-17:0'}"
  },
  {
    "int64_field_0": "146376",
    "business_id": "cdwJYqlp_NjS1w5Tz4J5dw",
    "name": "Artisan",
    "address": "5001 Penn Ave",
    "city": "Pittsburgh",
    "state": "PA",
    "postal_code": "15224",
    "latitude": "40.4653383",
    "longitude": "-79.9438735",
    "stars": "4.5",
    "review_count": "30",
    "is_open": "1",
    "attributes": "{'RestaurantsGoodForGroups': 'False', 'HasTV': 'False', 'ByAppointmentOnly': 'True', 'RestaurantsTakeOut': 'True', 'GoodForKids': 'False', 'OutdoorSeating': 'True', 'GoodForMeal': \"{'dessert': False, 'latenight': False, 'lunch': False, 'dinner': False, 'brunch': False, 'breakfast': False}\", 'BusinessAcceptsCreditCards': 'True', 'BusinessParking': \"{'garage': False, 'street': True, 'validated': False, 'lot': False, 'valet': False}\", 'Ambience': \"{'touristy': False, 'hipster': False, 'romantic': False, 'divey': False, 'intimate': False, 'trendy': False, 'upscale': False, 'classy': False, 'casual': False}\", 'RestaurantsAttire': \"'formal'\", 'WiFi': \"'free'\", 'Caters': 'False', 'RestaurantsDelivery': 'False', 'Alcohol': \"'none'\", 'RestaurantsReservations': 'False', 'RestaurantsPriceRange2': '3', 'BikeParking': 'True'}",
    "categories": "Cafes, Shopping, Fashion, Restaurants, Tattoo, Food, Beauty & Spas, Coffee & Tea, Arts & Entertainment, Art Galleries, Piercing",
    "hours": "{'Monday': '12:0-19:0', 'Tuesday': '12:0-19:0', 'Wednesday': '12:0-19:0', 'Thursday': '12:0-19:0', 'Friday': '12:0-19:0', 'Saturday': '12:0-19:0', 'Sunday': '8:0-16:0'}"
  },
  {
    "int64_field_0": "150049",
    "business_id": "RPQnA3wxxTNK9ysfEKSqtQ",
    "name": "Kawaii Gifts",
    "address": "738 Copeland St & 5413-B Walnut St",
    "city": "Pittsburgh",
    "state": "PA",
    "postal_code": "15232",
    "latitude": "40.451",
    "longitude": "-79.9348937",
    "stars": "4.5",
    "review_count": "26",
    "is_open": "1",
    "attributes": "{'BusinessParking': \"{'garage': False, 'street': True, 'validated': False, 'lot': False, 'valet': False}\", 'BikeParking': 'True', 'RestaurantsPriceRange2': '2', 'BusinessAcceptsCreditCards': 'True'}",
    "categories": "Gift Shops, Flowers & Gifts, Shopping, Toy Stores",
    "hours": "{'Monday': '11:0-19:0', 'Tuesday': '11:0-19:0', 'Wednesday': '11:0-19:0', 'Thursday': '11:0-19:0', 'Friday': '11:0-19:0', 'Saturday': '11:0-19:0', 'Sunday': '11:0-17:0'}"
  },
  {
    "int64_field_0": "150155",
    "business_id": "1jMtot685bxNT7oeSTNCaA",
    "name": "Construction Junction",
    "address": "214 N Lexington St",
    "city": "Pittsburgh",
    "state": "PA",
    "postal_code": "15208",
    "latitude": "40.4496169181",
    "longitude": "-79.8988556098",
    "stars": "4.5",
    "review_count": "45",
    "is_open": "1",
    "attributes": "{'ByAppointmentOnly': 'False', 'BusinessAcceptsBitcoin': 'False', 'BusinessAcceptsCreditCards': 'True', 'RestaurantsPriceRange2': '3', 'BusinessParking': \"{'garage': False, 'street': False, 'validated': False, 'lot': True, 'valet': False}\"}",
    "categories": "Discount Store, Recycling Center, Shopping, Local Services, Contractors, Home Services, Building Supplies, Fashion, Home & Garden, Antiques, Used, Vintage & Consignment",
    "hours": "{'Monday': '0:0-0:0', 'Tuesday': '9:0-18:0', 'Wednesday': '9:0-18:0', 'Thursday': '9:0-18:0', 'Friday': '9:0-18:0', 'Saturday': '9:0-17:0', 'Sunday': '10:0-17:0'}"
  },
  {
    "int64_field_0": "150688",
    "business_id": "4OO7bv4_8KqCA-OILQS-Qg",
    "name": "Who New Retro Mod Decor",
    "address": "5156 Butler St",
    "city": "Pittsburgh",
    "state": "PA",
    "postal_code": "15201",
    "latitude": "40.4798427",
    "longitude": "-79.9545648",
    "stars": "4.5",
    "review_count": "20",
    "is_open": "1",
    "attributes": "{'BusinessParking': \"{'garage': False, 'street': False, 'validated': False, 'lot': False, 'valet': False}\", 'BusinessAcceptsCreditCards': 'True', 'RestaurantsPriceRange2': '3', 'ByAppointmentOnly': 'False'}",
    "categories": "Home Decor, Shopping, Furniture Stores, Antiques, Home & Garden",
    "hours": "{'Wednesday': '12:0-18:0', 'Thursday': '12:0-18:0', 'Friday': '12:0-18:0', 'Saturday': '12:0-18:0'}"
  },
  {
    "int64_field_0": "151988",
    "business_id": "CZPwDxPvj5T3YIELkOelsw",
    "name": "Culmer Moving",
    "address": "6730 McPherson Blvd, Ste 1",
    "city": "Pittsburgh",
    "state": "PA",
    "postal_code": "15208",
    "latitude": "40.4550064",
    "longitude": "-79.9093657",
    "stars": "4.5",
    "review_count": "32",
    "is_open": "1",
    "attributes": "{'BusinessAcceptsBitcoin': 'False', 'BusinessAcceptsCreditCards': 'True', 'ByAppointmentOnly': 'True'}",
    "categories": "Junk Removal & Hauling, Shopping, Local Services, Movers, Home Services, Home & Garden, Packing Services",
    "hours": "{'Monday': '8:0-20:0', 'Tuesday': '8:0-20:0', 'Wednesday': '8:0-20:0', 'Thursday': '8:0-20:0', 'Friday': '8:0-20:0', 'Saturday': '8:0-18:0', 'Sunday': '10:0-16:0'}"
  },
  {
    "int64_field_0": "154723",
    "business_id": "P-rLDdSC6FT_TzJ6xS85CA",
    "name": "Mattress Firm Village of East Side",
    "address": "6401 Penn Ave, Ste 470",
    "city": "Pittsburgh",
    "state": "PA",
    "postal_code": "15206",
    "latitude": "40.4595581222",
    "longitude": "-79.9181197286",
    "stars": "5.0",
    "review_count": "10",
    "is_open": "1",
    "attributes": "{'RestaurantsPriceRange2': '2', 'BusinessAcceptsCreditCards': 'True', 'BikeParking': 'True', 'BusinessParking': \"{'garage': True, 'street': False, 'validated': False, 'lot': False, 'valet': False}\"}",
    "categories": "Home Decor, Mattresses, Home & Garden, Shopping, Furniture Stores",
    "hours": "{'Monday': '10:0-20:0', 'Tuesday': '10:0-20:0', 'Wednesday': '10:0-20:0', 'Thursday': '10:0-20:0', 'Friday': '10:0-20:0', 'Saturday': '10:0-20:0', 'Sunday': '11:0-19:0'}"
  },
  {
    "int64_field_0": "156531",
    "business_id": "im2J4GZZdEl7s4o21D7rgw",
    "name": "Lucy's",
    "address": "2216 Penn Ave",
    "city": "Pittsburgh",
    "state": "PA",
    "postal_code": "15222",
    "latitude": "40.4524912",
    "longitude": "-79.9815446",
    "stars": "4.5",
    "review_count": "46",
    "is_open": "1",
    "attributes": "{'BikeParking': 'True', 'Alcohol': \"'none'\", 'RestaurantsDelivery': 'False', 'Caters': 'False', 'RestaurantsTakeOut': 'True', 'GoodForMeal': \"{'dessert': False, 'latenight': False, 'lunch': True, 'dinner': False, 'brunch': True, 'breakfast': False}\", 'BusinessParking': \"{'garage': False, 'street': True, 'validated': False, 'lot': False, 'valet': False}\", 'RestaurantsPriceRange2': '1', 'BusinessAcceptsCreditCards': 'False'}",
    "categories": "Food, Shopping, Street Vendors, Personal Shopping",
    "hours": "{'Monday': '9:0-14:0', 'Tuesday': '9:0-14:0', 'Wednesday': '9:0-14:0', 'Thursday': '9:0-14:0', 'Friday': '9:0-14:0', 'Saturday': '9:0-14:0'}"
  },
  {
    "int64_field_0": "160819",
    "business_id": "xkZL2Z5O5qpBsjIzLzLmaw",
    "name": "No. 14",
    "address": "4601 Butler St",
    "city": "Pittsburgh",
    "state": "PA",
    "postal_code": "15201",
    "latitude": "40.472930101",
    "longitude": "-79.9588343411",
    "stars": "4.5",
    "review_count": "15",
    "is_open": "1",
    "attributes": "{'BusinessAcceptsCreditCards': 'True', 'BusinessParking': \"{'garage': False, 'street': True, 'validated': False, 'lot': False, 'valet': False}\", 'BusinessAcceptsBitcoin': 'False', 'WheelchairAccessible': 'False', 'RestaurantsPriceRange2': '3', 'DogsAllowed': 'False', 'BikeParking': 'True'}",
    "categories": "Flowers & Gifts, Accessories, Shopping, Gift Shops, Women's Clothing, Fashion",
    "hours": "{'Tuesday': '11:0-18:0', 'Wednesday': '11:0-18:0', 'Thursday': '11:0-18:0', 'Friday': '11:0-18:0', 'Saturday': '11:0-18:0', 'Sunday': '12:0-16:0'}"
  },
  {
    "int64_field_0": "163270",
    "business_id": "9-eAUaJMBhsO2uRt5sgGdw",
    "name": "Segway Pittsburgh",
    "address": "228 W Station Square Dr",
    "city": "Pittsburgh",
    "state": "PA",
    "postal_code": "15219",
    "latitude": "40.4344176",
    "longitude": "-80.0051961",
    "stars": "4.5",
    "review_count": "31",
    "is_open": "1",
    "attributes": null,
    "categories": "Shopping, Colleges & Universities, Tours, Art Galleries, Hotels & Travel, Education, Arts & Entertainment",
    "hours": "{'Monday': '9:0-21:0', 'Tuesday': '9:0-21:0', 'Wednesday': '9:0-21:0', 'Thursday': '9:0-21:0', 'Friday': '9:0-21:0', 'Saturday': '9:0-21:0', 'Sunday': '9:0-21:0'}"
  },
  {
    "int64_field_0": "168448",
    "business_id": "5q6jyfaRrYC01vPKMpCIqg",
    "name": "Werner Jewelers",
    "address": "1130 Perry Hwy",
    "city": "Pittsburgh",
    "state": "PA",
    "postal_code": "15237",
    "latitude": "40.550592",
    "longitude": "-80.036459",
    "stars": "5.0",
    "review_count": "12",
    "is_open": "1",
    "attributes": "{'ByAppointmentOnly': 'False', 'BusinessAcceptsCreditCards': 'True', 'BusinessParking': \"{'garage': False, 'street': False, 'validated': False, 'lot': True, 'valet': False}\", 'RestaurantsPriceRange2': '2', 'BikeParking': 'True', 'WiFi': \"'free'\"}",
    "categories": "Watches, Jewelry Repair, Event Planning & Services, Wedding Planning, Jewelry, Local Services, Shopping",
    "hours": "{'Monday': '10:0-18:0', 'Tuesday': '10:0-18:0', 'Wednesday': '10:0-18:0', 'Thursday': '10:0-18:0', 'Friday': '10:0-17:0', 'Saturday': '10:0-14:0'}"
  },
  {
    "int64_field_0": "168486",
    "business_id": "hlzDnbp7H7KPTefI1uwhjA",
    "name": "Blue Monkey Tea Pittsburgh",
    "address": "5872 Forbes Ave",
    "city": "Pittsburgh",
    "state": "PA",
    "postal_code": "15217",
    "latitude": "40.4378605",
    "longitude": "-79.9201969",
    "stars": "4.5",
    "review_count": "38",
    "is_open": "1",
    "attributes": "{'Caters': 'False', 'OutdoorSeating': 'False', 'BusinessParking': \"{'garage': False, 'street': True, 'validated': False, 'lot': True, 'valet': False}\", 'WiFi': \"'no'\", 'BusinessAcceptsCreditCards': 'True', 'RestaurantsPriceRange2': '2', 'RestaurantsTakeOut': 'True', 'BikeParking': 'True'}",
    "categories": "Specialty Food, International Grocery, Herbs & Spices, Religious Organizations, Coffee & Tea, Shopping, Flowers & Gifts, Event Planning & Services, Local Flavor, Tea Rooms, Food",
    "hours": "{'Monday': '11:0-19:0', 'Tuesday': '11:0-19:0', 'Wednesday': '11:0-19:0', 'Thursday': '11:0-19:0', 'Friday': '11:0-19:0', 'Saturday': '11:0-19:0', 'Sunday': '12:0-17:0'}"
  },
  {
    "int64_field_0": "172452",
    "business_id": "C-6ntT2ss7axyMhR3XmZBQ",
    "name": "love, Pittsburgh",
    "address": "301 Shiloh St",
    "city": "Pittsburgh",
    "state": "PA",
    "postal_code": "15211",
    "latitude": "40.4292399",
    "longitude": "-80.0071768",
    "stars": "5.0",
    "review_count": "16",
    "is_open": "1",
    "attributes": "{'WheelchairAccessible': 'False', 'BusinessAcceptsBitcoin': 'False', 'BikeParking': 'False', 'DogsAllowed': 'False', 'BusinessAcceptsCreditCards': 'True', 'BusinessParking': \"{'garage': False, 'street': True, 'validated': False, 'lot': False, 'valet': False}\", 'RestaurantsPriceRange2': '2'}",
    "categories": "Shopping, Event Planning & Services, Cards & Stationery, Arts & Crafts, Flowers & Gifts, Gift Shops",
    "hours": "{'Monday': '0:0-0:0', 'Wednesday': '12:0-17:0', 'Thursday': '11:0-19:0', 'Friday': '11:0-19:0', 'Saturday': '11:0-19:0', 'Sunday': '12:0-17:0'}"
  },
  {
    "int64_field_0": "173179",
    "business_id": "R_j8H7aLP2xVShc-6iOcPQ",
    "name": "Natural Stitches",
    "address": "6401 Penn Ave",
    "city": "Pittsburgh",
    "state": "PA",
    "postal_code": "15206",
    "latitude": "40.4586356",
    "longitude": "-79.9174452",
    "stars": "4.5",
    "review_count": "14",
    "is_open": "0",
    "attributes": "{'BusinessParking': \"{'garage': False, 'street': False, 'validated': False, 'lot': True, 'valet': False}\", 'RestaurantsPriceRange2': '2', 'BusinessAcceptsCreditCards': 'True', 'BikeParking': 'True'}",
    "categories": "Knitting Supplies, Shopping, Hobby Shops, Local Flavor, Fabric Stores, Arts & Crafts",
    "hours": null
  },
  {
    "int64_field_0": "173591",
    "business_id": "LFhkMq9DCSGpYI5Cdlpyiw",
    "name": "720 Music, Clothing and Cafe",
    "address": "4405 Butler St",
    "city": "Pittsburgh",
    "state": "PA",
    "postal_code": "15201",
    "latitude": "40.471775",
    "longitude": "-79.959903",
    "stars": "4.5",
    "review_count": "17",
    "is_open": "0",
    "attributes": "{'BusinessParking': \"{'garage': False, 'street': True, 'validated': False, 'lot': False, 'valet': False}\", 'RestaurantsPriceRange2': '1', 'WiFi': \"u'free'\", 'OutdoorSeating': 'False', 'BusinessAcceptsCreditCards': 'True', 'BikeParking': 'True'}",
    "categories": "Coffee & Tea, Food, Vinyl Records, Books, Mags, Music & Video, Shopping",
    "hours": "{'Monday': '7:0-12:0', 'Tuesday': '7:0-21:0', 'Wednesday': '7:0-21:0', 'Thursday': '7:0-21:0', 'Friday': '7:0-21:0', 'Saturday': '11:0-21:0', 'Sunday': '10:0-17:0'}"
  },
  {
    "int64_field_0": "174177",
    "business_id": "lnvkShNMuLI3XkLf8NX7_Q",
    "name": "Alexs East End Floral Shoppe",
    "address": "236 Shady Ave",
    "city": "Pittsburgh",
    "state": "PA",
    "postal_code": "15206",
    "latitude": "40.4584883467",
    "longitude": "-79.9224053796",
    "stars": "4.5",
    "review_count": "27",
    "is_open": "1",
    "attributes": "{'BikeParking': 'True', 'BusinessAcceptsCreditCards': 'True', 'RestaurantsDelivery': 'True', 'RestaurantsPriceRange2': '2'}",
    "categories": "Shopping, Florists, Event Planning & Services, Flowers & Gifts, Floral Designers",
    "hours": "{'Monday': '0:0-0:0', 'Tuesday': '9:0-17:0', 'Wednesday': '9:0-17:0', 'Thursday': '9:0-17:0', 'Friday': '9:0-17:0', 'Saturday': '10:0-16:0'}"
  },
  {
    "int64_field_0": "176054",
    "business_id": "Cot6sn3QVG1utmh3qJNF7Q",
    "name": "Target",
    "address": "288 Mt Nebo Pointe Dr",
    "city": "Pittsburgh",
    "state": "PA",
    "postal_code": "15237",
    "latitude": "40.5356908",
    "longitude": "-80.068436",
    "stars": "4.5",
    "review_count": "12",
    "is_open": "1",
    "attributes": "{'RestaurantsPriceRange2': '2', 'BusinessAcceptsCreditCards': 'True', 'BusinessParking': \"{'garage': False, 'street': False, 'validated': False, 'lot': True, 'valet': False}\", 'BikeParking': 'False'}",
    "categories": "Department Stores, Fashion, Shopping, Drugstores",
    "hours": "{'Monday': '8:0-22:0', 'Tuesday': '8:0-22:0', 'Wednesday': '8:0-22:0', 'Thursday': '8:0-22:0', 'Friday': '8:0-22:0', 'Saturday': '8:0-22:0', 'Sunday': '8:0-21:0'}"
  },
  {
    "int64_field_0": "179697",
    "business_id": "K3p2iyJ8xRU5-5NlvoxiFA",
    "name": "Carnegie Museums of Pittsburgh",
    "address": "4400 Forbes Ave",
    "city": "Pittsburgh",
    "state": "PA",
    "postal_code": "15213",
    "latitude": "40.444011",
    "longitude": "-79.950361",
    "stars": "4.5",
    "review_count": "53",
    "is_open": "1",
    "attributes": "{'GoodForKids': 'True', 'BusinessAcceptsCreditCards': 'True', 'RestaurantsPriceRange2': '1', 'ByAppointmentOnly': 'False', 'BikeParking': 'True'}",
    "categories": "Event Planning & Services, Performing Arts, Wedding Planning, Arts & Entertainment, Art Galleries, Party & Event Planning, Books, Mags, Music & Video, Museums, Venues & Event Spaces, Shopping",
    "hours": "{'Monday': '10:0-17:0', 'Tuesday': '10:0-17:0', 'Wednesday': '10:0-17:0', 'Thursday': '10:0-20:0', 'Friday': '10:0-17:0', 'Saturday': '10:0-17:0', 'Sunday': '10:0-17:0'}"
  },
  {
    "int64_field_0": "179867",
    "business_id": "gcrz3WGhLuwH6B1JnwHgjw",
    "name": "Artist & Craftsman Supply",
    "address": "5603 Hobart St",
    "city": "Pittsburgh",
    "state": "PA",
    "postal_code": "15217",
    "latitude": "40.4330477261",
    "longitude": "-79.9275129977",
    "stars": "4.5",
    "review_count": "17",
    "is_open": "1",
    "attributes": "{'RestaurantsPriceRange2': '2', 'BusinessAcceptsCreditCards': 'True', 'BusinessParking': \"{'garage': False, 'street': True, 'validated': False, 'lot': False, 'valet': False}\", 'BikeParking': 'True'}",
    "categories": "Shopping, Arts & Crafts, Art Supplies, Toy Stores, Hobby Shops",
    "hours": "{'Monday': '0:0-0:0', 'Tuesday': '9:0-19:30', 'Wednesday': '9:0-19:30', 'Thursday': '9:0-19:30', 'Friday': '9:0-19:30', 'Saturday': '9:0-19:0', 'Sunday': '9:0-17:0'}"
  },
  {
    "int64_field_0": "179885",
    "business_id": "K34wQG_chxynxWSGNYI5QQ",
    "name": "Pittsburgh Center for Creative Reuse",
    "address": "214 N Lexington St",
    "city": "Pittsburgh",
    "state": "PA",
    "postal_code": "15208",
    "latitude": "40.449987",
    "longitude": "-79.8978841",
    "stars": "5.0",
    "review_count": "20",
    "is_open": "1",
    "attributes": "{'RestaurantsPriceRange2': '1', 'BikeParking': 'True', 'BusinessParking': \"{'garage': False, 'street': True, 'validated': False, 'lot': False, 'valet': False}\", 'BusinessAcceptsBitcoin': 'False', 'BusinessAcceptsCreditCards': 'True'}",
    "categories": "Local Services, Shopping, Arts & Crafts, Art Supplies, Community Service/Non-Profit",
    "hours": "{'Monday': '0:0-0:0', 'Tuesday': '11:0-18:0', 'Wednesday': '11:0-18:0', 'Thursday': '11:0-18:0', 'Friday': '11:0-18:0', 'Saturday': '11:0-18:0', 'Sunday': '11:0-18:0'}"
  },
  {
    "int64_field_0": "180022",
    "business_id": "045F-O_4kmb6peoAVfrIXg",
    "name": "Mike Feinberg",
    "address": "1736 Penn Ave",
    "city": "Pittsburgh",
    "state": "PA",
    "postal_code": "15222",
    "latitude": "40.4502241",
    "longitude": "-79.9847785",
    "stars": "4.5",
    "review_count": "13",
    "is_open": "0",
    "attributes": "{'BusinessAcceptsCreditCards': 'True', 'BusinessParking': \"{'garage': False, 'street': False, 'validated': False, 'lot': False, 'valet': False}\", 'RestaurantsPriceRange2': '2', 'BikeParking': 'True'}",
    "categories": "Flowers & Gifts, Cards & Stationery, Event Planning & Services, Shopping, Party Supplies, Home & Garden, Souvenir Shops, Kitchen & Bath, Arts & Crafts",
    "hours": "{'Monday': '8:30-16:0', 'Tuesday': '8:30-16:0', 'Wednesday': '8:30-16:0', 'Thursday': '8:30-16:0', 'Friday': '8:30-16:0', 'Saturday': '8:30-15:0'}"
  },
  {
    "int64_field_0": "183268",
    "business_id": "szCcTSAzXJgerKtBgBBW5g",
    "name": "Buddy's Brews On Carson",
    "address": "2112 E Carson St",
    "city": "Pittsburgh",
    "state": "PA",
    "postal_code": "15203",
    "latitude": "40.4282880868",
    "longitude": "-79.9752062559",
    "stars": "4.5",
    "review_count": "13",
    "is_open": "1",
    "attributes": "{'BikeParking': 'True', 'BusinessAcceptsCreditCards': 'True', 'Caters': 'False', 'RestaurantsPriceRange2': '2', 'BusinessParking': \"{'garage': False, 'street': True, 'validated': False, 'lot': False, 'valet': False}\", 'RestaurantsTakeOut': 'False'}",
    "categories": "Beer, Wine & Spirits, Shopping, Food, Fashion",
    "hours": "{'Monday': '10:0-22:0', 'Tuesday': '10:0-22:0', 'Wednesday': '10:0-22:0', 'Thursday': '10:0-22:0', 'Friday': '10:0-23:0', 'Saturday': '10:0-23:0', 'Sunday': '10:0-18:0'}"
  },
  {
    "int64_field_0": "183529",
    "business_id": "9A23qP-9IWNnJyseV8RYLw",
    "name": "Underground Printing",
    "address": "117 Meyran Ave",
    "city": "Pittsburgh",
    "state": "PA",
    "postal_code": "15213",
    "latitude": "40.4409039",
    "longitude": "-79.9585541",
    "stars": "4.5",
    "review_count": "11",
    "is_open": "1",
    "attributes": "{'BusinessAcceptsCreditCards': 'True'}",
    "categories": "Screen Printing/T-Shirt Printing, Local Services, Printing Services, Shopping, Arts & Crafts, Professional Services, Customized Merchandise, Embroidery & Crochet",
    "hours": "{'Monday': '0:0-0:0', 'Tuesday': '9:0-18:0', 'Wednesday': '9:0-18:0', 'Thursday': '9:0-18:0', 'Friday': '9:0-18:0'}"
  },
  {
    "int64_field_0": "183831",
    "business_id": "lAN5WEQn5SwKEmUIqddysg",
    "name": "Trader Joe's",
    "address": "9020 Covenant Ave",
    "city": "Pittsburgh",
    "state": "PA",
    "postal_code": "15237",
    "latitude": "40.5703531",
    "longitude": "-80.022255",
    "stars": "4.5",
    "review_count": "48",
    "is_open": "1",
    "attributes": "{'BikeParking': 'True', 'RestaurantsPriceRange2': '2', 'ByAppointmentOnly': 'False', 'BusinessAcceptsCreditCards': 'True', 'Alcohol': \"'none'\", 'Caters': 'False', 'BusinessParking': \"{'garage': False, 'street': False, 'validated': False, 'lot': True, 'valet': False}\", 'RestaurantsTakeOut': 'False'}",
    "categories": "Shopping, Food, Flowers & Gifts, Beer, Wine & Spirits, Specialty Food, Grocery, Florists",
    "hours": "{'Monday': '8:0-21:0', 'Tuesday': '8:0-21:0', 'Wednesday': '8:0-17:0', 'Thursday': '8:0-21:0', 'Friday': '8:0-21:0', 'Saturday': '8:0-21:0', 'Sunday': '8:0-21:0'}"
  },
  {
    "int64_field_0": "184951",
    "business_id": "9ai2NBOoFXNyLY0eJ0L7lw",
    "name": "Pittsburgh Guitars",
    "address": "1305 E Carson St",
    "city": "Pittsburgh",
    "state": "PA",
    "postal_code": "15203",
    "latitude": "40.4289587",
    "longitude": "-79.9850661",
    "stars": "5.0",
    "review_count": "19",
    "is_open": "1",
    "attributes": "{'BusinessParking': \"{'garage': False, 'street': True, 'validated': False, 'lot': False, 'valet': False}\", 'BusinessAcceptsCreditCards': 'True', 'RestaurantsPriceRange2': '2', 'BikeParking': 'True'}",
    "categories": "Shopping, Musical Instrument Services, Guitar Stores, Musical Instruments & Teachers, Local Services",
    "hours": "{'Monday': '0:0-0:0', 'Tuesday': '11:0-20:0', 'Wednesday': '11:0-20:0', 'Thursday': '11:0-20:0', 'Friday': '11:0-17:0', 'Saturday': '11:0-17:0'}"
  },
  {
    "int64_field_0": "186159",
    "business_id": "Usd_eiae2ZLlPjBLxpkeUA",
    "name": "Inhale Pittsburgh",
    "address": "100 7th St",
    "city": "Pittsburgh",
    "state": "PA",
    "postal_code": "15222",
    "latitude": "40.4442769817",
    "longitude": "-80.0008124487",
    "stars": "4.5",
    "review_count": "12",
    "is_open": "1",
    "attributes": "{'WheelchairAccessible': 'True', 'AcceptsInsurance': 'True', 'GoodForKids': 'False', 'ByAppointmentOnly': 'False', 'BusinessParking': \"{'garage': True, 'street': True, 'validated': False, 'lot': False, 'valet': False}\", 'BusinessAcceptsCreditCards': 'True', 'BikeParking': 'True'}",
    "categories": "Active Life, Massage, Shopping, Fitness & Instruction, Beauty & Spas, Yoga",
    "hours": "{'Monday': '6:30-21:0', 'Tuesday': '6:30-21:0', 'Wednesday': '6:30-21:0', 'Thursday': '6:30-21:0', 'Friday': '6:30-18:0', 'Saturday': '9:30-15:0', 'Sunday': '10:0-17:0'}"
  },
  {
    "int64_field_0": "187780",
    "business_id": "u0IBpeFgrr9ZRvq31K_o6w",
    "name": "Henne Jewelers",
    "address": "5501 Walnut St, Ste 1",
    "city": "Pittsburgh",
    "state": "PA",
    "postal_code": "15232",
    "latitude": "40.4513374",
    "longitude": "-79.9337758",
    "stars": "4.5",
    "review_count": "31",
    "is_open": "1",
    "attributes": "{'BikeParking': 'True', 'RestaurantsPriceRange2': '3', 'BusinessParking': \"{'garage': True, 'street': True, 'validated': False, 'lot': False, 'valet': False}\", 'ByAppointmentOnly': 'False', 'BusinessAcceptsCreditCards': 'True', 'BusinessAcceptsBitcoin': 'False'}",
    "categories": "Jewelry, Shopping, Watch Repair, Jewelry Repair, Watches, Local Services",
    "hours": "{'Monday': '0:0-0:0', 'Tuesday': '10:0-17:0', 'Wednesday': '10:0-20:0', 'Thursday': '10:0-17:0', 'Friday': '10:0-17:30', 'Saturday': '10:0-16:0'}"
  },
  {
    "int64_field_0": "187792",
    "business_id": "Flxxmmegf_qLsjDog0j7xw",
    "name": "Roxanne's Dried Flowers",
    "address": "2115 Penn Ave",
    "city": "Pittsburgh",
    "state": "PA",
    "postal_code": "15222",
    "latitude": "40.4521079",
    "longitude": "-79.9828038",
    "stars": "4.5",
    "review_count": "21",
    "is_open": "1",
    "attributes": "{'BusinessAcceptsCreditCards': 'True', 'RestaurantsPriceRange2': '2', 'BikeParking': 'True', 'BusinessParking': \"{'garage': False, 'street': True, 'validated': False, 'lot': True, 'valet': False}\", 'RestaurantsDelivery': 'True', 'WheelchairAccessible': 'True'}",
    "categories": "Florists, Shopping, Gift Shops, Nurseries & Gardening, Home & Garden, Flowers & Gifts",
    "hours": "{'Monday': '0:0-0:0', 'Tuesday': '9:0-19:0', 'Wednesday': '9:0-19:0', 'Thursday': '9:0-21:0', 'Friday': '9:0-21:0', 'Saturday': '9:0-19:0', 'Sunday': '9:0-16:0'}"
  },
  {
    "int64_field_0": "187897",
    "business_id": "IvC6thJkTlWmhVB8AR0luA",
    "name": "Sergio's Style",
    "address": "2891 W Liberty Ave",
    "city": "Pittsburgh",
    "state": "PA",
    "postal_code": "15216",
    "latitude": "40.394911",
    "longitude": "-80.0339896",
    "stars": "4.5",
    "review_count": "45",
    "is_open": "1",
    "attributes": "{'RestaurantsPriceRange2': '2', 'BikeParking': 'True', 'BusinessParking': \"{'garage': False, 'street': True, 'validated': False, 'lot': True, 'valet': False}\", 'ByAppointmentOnly': 'False', 'BusinessAcceptsCreditCards': 'True', 'GoodForKids': 'True'}",
    "categories": "Shopping, Beauty & Spas, Nail Salons, Makeup Artists, Cosmetics & Beauty Supply, Blow Dry/Out Services, Barbers, Eyelash Service, Hair Stylists, Hair Salons, Waxing, Hair Extensions, Hair Removal",
    "hours": "{'Tuesday': '10:0-21:0', 'Wednesday': '10:0-19:0', 'Thursday': '10:0-21:0', 'Friday': '9:0-19:0', 'Saturday': '9:0-16:0'}"
  },
  {
    "int64_field_0": "190792",
    "business_id": "nFgpPR2Bce9t_s8siEv9Kw",
    "name": "Wild Card",
    "address": "4209 Butler St",
    "city": "Pittsburgh",
    "state": "PA",
    "postal_code": "15201",
    "latitude": "40.4705575",
    "longitude": "-79.9606642",
    "stars": "4.5",
    "review_count": "83",
    "is_open": "1",
    "attributes": "{'RestaurantsPriceRange2': '2', 'BusinessAcceptsCreditCards': 'True', 'BikeParking': 'True', 'BusinessParking': \"{'garage': False, 'street': True, 'validated': False, 'lot': True, 'valet': False}\"}",
    "categories": "Shopping, Flowers & Gifts, Department Stores, Local Flavor, Fashion, Cards & Stationery, Arts & Crafts, Event Planning & Services",
    "hours": "{'Monday': '11:0-19:0', 'Tuesday': '11:0-19:0', 'Wednesday': '11:0-19:0', 'Thursday': '11:0-20:0', 'Friday': '11:0-19:0', 'Saturday': '11:0-19:0', 'Sunday': '11:0-17:0'}"
  }
]